{"Barnstable": {"records": [{"speciesCode": "comgra", "comName": "Common Grackle", "sciName": "Quiscalus quiscula", "locId": "L36925400", "locName": "McCoy Tree Farm", "obsDt": "2024-09-28 17:33", "howMany": 65, "lat": 41.7001935, "lng": -70.02177, "obsValid": true, "obsReviewed": false, "locationPrivate": false, "subId": "S196814358"}, {"speciesCode": "gnwtea", "comName": "Green-winged Teal", "sciName": "Anas crecca", "locId": "L3471947", "locName": "Monomoy NWR--Big Station Pond", "obsDt": "2024-09-26 15:30", "howMany": 50, "lat": 41.549212, "lng": -70.0076509, "obsValid": true, "obsReviewed": false, "locationPrivate": false, "subId": "S196566277"}, {"speciesCode": "hergul", "comName": "Herring Gull", "sciName": "Larus argentatus", "locId": "L36925460", "locName": "Cole Beach", "obsDt": "2024-09-28 18:18", "howMany": 40, "lat": 41.8304515, "lng": -70.0040499, "obsValid": true, "obsReviewed": false, "locationPrivate": false, "subId": "S196814563"}, {"speciesCode": "cangoo", "comName": "Canada Goose", "sciName": "Branta canadensis", "locId": "L14513402", "locName": "Veterans Park Beach", "obsDt": "2024-09-28 17:23", "howMany": 40, "lat": 41.6411047, "lng": -70.278554, "obsValid": true, "obsReviewed": false, "locationPrivate": false, "subId": "S196805120"}, {"speciesCode": "rocpig", "comName": "Rock Pigeon", "sciName": "Columba livia", "locId": "L737088", "locName": "Stellwagen Bank--Race Point Waters", "obsDt": "2024-09-28 16:20", "howMany": 40, "lat": 42.0745904, "lng": -70.264821, "obsValid": true, "obsReviewed": false, "locationPrivate": false, "subId": "S196826597", "exoticCategory": "N"}, {"speciesCode": "gbbgul", "comName": "Great Black-backed Gull", "sciName": "Larus marinus", "locId": "L36925460", "locName": "Cole Beach", "obsDt": "2024-09-28 18:18", "howMany": 25, "lat": 41.8304515, "lng": -70.0040499, "obsValid": true, "obsReviewed": false, "locationPrivate": false, "subId": "S196814563"}, {"speciesCode": "ribgul", "comName": "Ring-billed Gull", "sciName": "Larus delawarensis", "locId": "L36925460", "locName": "Cole Beach", "obsDt": "2024-09-28 18:18", "howMany": 25, "lat": 41.8304515, "lng": -70.0040499, "obsValid": true, "obsReviewed": false, "locationPrivate": false, "subId": "S196814563"}, {"speciesCode": "easblu", "comName": "Eastern Bluebird", "sciName": "Sialia sialis", "locId": "L36921229", "locName": "805 Gifford Street Ext, Falmouth US-MA 41.58661, -70.60448", "obsDt": "2024-09-28 16:10", "howMany": 25, "lat": 41.58661, "lng": -70.604475, "obsValid": true, "obsReviewed": false, "locationPrivate": true, "subId": "S196795401"}, {"speciesCode": "lbbgul", "comName": "Lesser Black-backed Gull", "sciName": "Larus fuscus", "locId": "L6299750", "locName": "(41.559, -69.991) Monomoy NWR Lighthouse Beach", "obsDt": "2024-09-28 14:20", "howMany": 15, "lat": 41.5593109, "lng": -69.9908002, "obsValid": true, "obsReviewed": false, "locationPrivate": true, "subId": "S196817504"}, {"speciesCode": "semplo", "comName": "Semipalmated Plover", "sciName": "Charadrius semipalmatus", "locId": "L36925460", "locName": "Cole Beach", "obsDt": "2024-09-28 18:18", "howMany": 12, "lat": 41.8304515, "lng": -70.0040499, "obsValid": true, "obsReviewed": false, "locationPrivate": false, "subId": "S196814563"}, {"speciesCode": "yerwar", "comName": "Yellow-rumped Warbler", "sciName": "Setophaga coronata", "locId": "L36921229", "locName": "805 Gifford Street Ext, Falmouth US-MA 41.58661, -70.60448", "obsDt": "2024-09-28 16:10", "howMany": 12, "lat": 41.58661, "lng": -70.604475, "obsValid": true, "obsReviewed": false, "locationPrivate": true, "subId": "S196795401"}, {"speciesCode": "treswa", "comName": "Tree Swallow", "sciName": "Tachycineta bicolor", "locId": "L692829", "locName": "Bell's Neck Conservation Area (HCT)", "obsDt": "2024-09-28 09:00", "howMany": 12, "lat": 41.6840342, "lng": -70.1129007, "obsValid": true, "obsReviewed": false, "locationPrivate": false, "subId": "S196749487"}, {"speciesCode": "renpha", "comName": "Red-necked Phalarope", "sciName": "Phalaropus lobatus", "locId": "L364733", "locName": "Race Point", "obsDt": "2024-09-26 16:12", "howMany": 12, "lat": 42.0691855, "lng": -70.2381706, "obsValid": true, "obsReviewed": false, "locationPrivate": false, "subId": "S196632479"}, {"speciesCode": "bklkit", "comName": "Black-legged Kittiwake", "sciName": "Rissa tridactyla", "locId": "L805337", "locName": "Nauset Beach, Orleans", "obsDt": "2024-09-26 09:40", "howMany": 12, "lat": 41.7888489, "lng": -69.9355316, "obsValid": true, "obsReviewed": false, "locationPrivate": false, "subId": "S196535562"}, {"speciesCode": "doccor", "comName": "Double-crested Cormorant", "sciName": "Nannopterum auritum", "locId": "L36925460", "locName": "Cole Beach", "obsDt": "2024-09-28 18:18", "howMany": 10, "lat": 41.8304515, "lng": -70.0040499, "obsValid": true, "obsReviewed": false, "locationPrivate": false, "subId": "S196814563"}, {"speciesCode": "laugul", "comName": "Laughing Gull", "sciName": "Leucophaeus atricilla", "locId": "L36925460", "locName": "Cole Beach", "obsDt": "2024-09-28 18:18", "howMany": 10, "lat": 41.8304515, "lng": -70.0040499, "obsValid": true, "obsReviewed": false, "locationPrivate": false, "subId": "S196814563"}, {"speciesCode": "fiespa", "comName": "Field Sparrow", "sciName": "Spizella pusilla", "locId": "L468673", "locName": "Frances A. Crane WMA", "obsDt": "2024-09-28 14:35", "howMany": 10, "lat": 41.6348031, "lng": -70.5607738, "obsValid": true, "obsReviewed": false, "locationPrivate": false, "subId": "S196827111"}, {"speciesCode": "horlar", "comName": "Horned Lark", "sciName": "Eremophila alpestris", "locId": "L489376", "locName": "Race Point Beach, Provincetown", "obsDt": "2024-09-28 12:16", "howMany": 10, "lat": 42.0782217, "lng": -70.2263891, "obsValid": true, "obsReviewed": false, "locationPrivate": false, "subId": "S196767919"}, {"speciesCode": "ambduc", "comName": "American Black Duck", "sciName": "Anas rubripes", "locId": "L1335721", "locName": "Eastward Point--General Area", "obsDt": "2024-09-28 10:23", "howMany": 9, "lat": 41.7179024, "lng": -69.9720955, "obsValid": true, "obsReviewed": false, "locationPrivate": false, "subId": "S196757268"}, {"speciesCode": "rudduc", "comName": "Ruddy Duck", "sciName": "Oxyura jamaicensis", "locId": "L20691399", "locName": "Monomoy Lighthouse Ponds", "obsDt": "2024-09-26 13:20", "howMany": 9, "lat": 41.559576, "lng": -69.994101, "obsValid": true, "obsReviewed": false, "locationPrivate": true, "subId": "S196565234"}, {"speciesCode": "mallar3", "comName": "Mallard", "sciName": "Anas platyrhynchos", "locId": "L14513402", "locName": "Veterans Park Beach", "obsDt": "2024-09-28 17:23", "howMany": 8, "lat": 41.6411047, "lng": -70.278554, "obsValid": true, "obsReviewed": false, "locationPrivate": false, "subId": "S196805120"}, {"speciesCode": "chispa", "comName": "Chipping Sparrow", "sciName": "Spizella passerina", "locId": "L4292856", "locName": "Cape Cod Organic Farm", "obsDt": "2024-09-28 12:38", "howMany": 8, "lat": 41.6979064, "lng": -70.2887732, "obsValid": true, "obsReviewed": false, "locationPrivate": false, "subId": "S196785356"}, {"speciesCode": "cedwax", "comName": "Cedar Waxwing", "sciName": "Bombycilla cedrorum", "locId": "L466873", "locName": "Scusset Beach State Reservation", "obsDt": "2024-09-28 09:38", "howMany": 7, "lat": 41.7781927, "lng": -70.500555, "obsValid": true, "obsReviewed": false, "locationPrivate": false, "subId": "S196739338"}, {"speciesCode": "mutswa", "comName": "Mute Swan", "sciName": "Cygnus olor", "locId": "L692829", "locName": "Bell's Neck Conservation Area (HCT)", "obsDt": "2024-09-28 09:00", "howMany": 7, "lat": 41.6840342, "lng": -70.1129007, "obsValid": true, "obsReviewed": false, "locationPrivate": false, "subId": "S196749487", "exoticCategory": "N"}, {"speciesCode": "rewbla", "comName": "Red-winged Blackbird", "sciName": "Agelaius phoeniceus", "locId": "L466636", "locName": "Herring River, Wellfleet", "obsDt": "2024-09-28 08:12", "howMany": 7, "lat": 41.9348807, "lng": -70.0597715, "obsValid": true, "obsReviewed": false, "locationPrivate": false, "subId": "S196743562"}, {"speciesCode": "snoegr", "comName": "Snowy Egret", "sciName": "Egretta thula", "locId": "L935205", "locName": "Cockle Cove Beach, Chatham", "obsDt": "2024-09-28 14:20", "howMany": 6, "lat": 41.6728798, "lng": -70.0117493, "obsValid": true, "obsReviewed": false, "locationPrivate": false, "subId": "S196791933"}, {"speciesCode": "shbdow", "comName": "Short-billed Dowitcher", "sciName": "Limnodromus griseus", "locId": "L23740366", "locName": "Mayflower Beach, Dennis", "obsDt": "2024-09-28 11:10", "howMany": 6, "lat": 41.7433317, "lng": -70.2178288, "obsValid": true, "obsReviewed": false, "locationPrivate": false, "subId": "S196765604"}, {"speciesCode": "semsan", "comName": "Semipalmated Sandpiper", "sciName": "Calidris pusilla", "locId": "L36925460", "locName": "Cole Beach", "obsDt": "2024-09-28 18:18", "howMany": 5, "lat": 41.8304515, "lng": -70.0040499, "obsValid": true, "obsReviewed": false, "locationPrivate": false, "subId": "S196814563"}, {"speciesCode": "wiltur", "comName": "Wild Turkey", "sciName": "Meleagris gallopavo", "locId": "L6111645", "locName": "US-MA-Wellfleet-Drummer Cove - 41.9126x-69.9976", "obsDt": "2024-09-28 18:11", "howMany": 5, "lat": 41.912557, "lng": -69.997631, "obsValid": true, "obsReviewed": false, "locationPrivate": true, "subId": "S196816514"}, {"speciesCode": "turvul", "comName": "Turkey Vulture", "sciName": "Cathartes aura", "locId": "L1240934", "locName": "Cape Cod National Seashore--Salt Pond Visitors Center", "obsDt": "2024-09-28 17:14", "howMany": 5, "lat": 41.837154, "lng": -69.9726588, "obsValid": true, "obsReviewed": false, "locationPrivate": false, "subId": "S196802173"}, {"speciesCode": "blksco2", "comName": "Black Scoter", "sciName": "Melanitta americana", "locId": "L36923879", "locName": "mini pelagic leg 4", "obsDt": "2024-09-28 16:58", "howMany": 5, "lat": 42.0493391, "lng": -70.2328613, "obsValid": true, "obsReviewed": false, "locationPrivate": true, "subId": "S196807135"}, {"speciesCode": "greshe", "comName": "Great Shearwater", "sciName": "Ardenna gravis", "locId": "L489376", "locName": "Race Point Beach, Provincetown", "obsDt": "2024-09-28 16:25", "howMany": 5, "lat": 42.0782217, "lng": -70.2263891, "obsValid": true, "obsReviewed": false, "locationPrivate": false, "subId": "S196805272"}, {"speciesCode": "marwre", "comName": "Marsh Wren", "sciName": "Cistothorus palustris", "locId": "L466636", "locName": "Herring River, Wellfleet", "obsDt": "2024-09-27 15:00", "howMany": 5, "lat": 41.9348807, "lng": -70.0597715, "obsValid": true, "obsReviewed": false, "locationPrivate": false, "subId": "S196678125"}, {"speciesCode": "comter", "comName": "Common Tern", "sciName": "Sterna hirundo", "locId": "L474804", "locName": "Sandy Neck", "obsDt": "2024-09-28 17:23", "howMany": 4, "lat": 41.7353901, "lng": -70.3512096, "obsValid": true, "obsReviewed": false, "locationPrivate": false, "subId": "S196809491"}, {"speciesCode": "houspa", "comName": "House Sparrow", "sciName": "Passer domesticus", "locId": "L14513402", "locName": "Veterans Park Beach", "obsDt": "2024-09-28 17:23", "howMany": 4, "lat": 41.6411047, "lng": -70.278554, "obsValid": true, "obsReviewed": false, "locationPrivate": false, "subId": "S196805120", "exoticCategory": "N"}, {"speciesCode": "reevir1", "comName": "Red-eyed Vireo", "sciName": "Vireo olivaceus", "locId": "L4292856", "locName": "Cape Cod Organic Farm", "obsDt": "2024-09-28 12:38", "howMany": 4, "lat": 41.6979064, "lng": -70.2887732, "obsValid": true, "obsReviewed": false, "locationPrivate": false, "subId": "S196785356"}, {"speciesCode": "pecsan", "comName": "Pectoral Sandpiper", "sciName": "Calidris melanotos", "locId": "L3475826", "locName": "Monomoy NWR--Powder Hole", "obsDt": "2024-09-27 15:45", "howMany": 4, "lat": 41.5549318, "lng": -70.0047648, "obsValid": true, "obsReviewed": false, "locationPrivate": false, "subId": "S196663281"}, {"speciesCode": "buwtea", "comName": "Blue-winged Teal", "sciName": "Spatula discors", "locId": "L469147", "locName": "Marstons Mills Pond", "obsDt": "2024-09-27 11:11", "howMany": 4, "lat": 41.6515912, "lng": -70.4144454, "obsValid": true, "obsReviewed": false, "locationPrivate": false, "subId": "S196826265"}, {"speciesCode": "banswa", "comName": "Bank Swallow", "sciName": "Riparia riparia", "locId": "L30808662", "locName": "Thumpertown Beach", "obsDt": "2024-09-23 07:58", "howMany": 4, "lat": 41.8436128, "lng": -70.0052052, "obsValid": true, "obsReviewed": false, "locationPrivate": false, "subId": "S196222333"}, {"speciesCode": "sander", "comName": "Sanderling", "sciName": "Calidris alba", "locId": "L36925460", "locName": "Cole Beach", "obsDt": "2024-09-28 18:18", "howMany": 3, "lat": 41.8304515, "lng": -70.0040499, "obsValid": true, "obsReviewed": false, "locationPrivate": false, "subId": "S196814563"}, {"speciesCode": "moudov", "comName": "Mourning Dove", "sciName": "Zenaida macroura", "locId": "L14513402", "locName": "Veterans Park Beach", "obsDt": "2024-09-28 17:23", "howMany": 3, "lat": 41.6411047, "lng": -70.278554, "obsValid": true, "obsReviewed": false, "locationPrivate": false, "subId": "S196805120"}, {"speciesCode": "leasan", "comName": "Least Sandpiper", "sciName": "Calidris minutilla", "locId": "L489376", "locName": "Race Point Beach, Provincetown", "obsDt": "2024-09-28 16:25", "howMany": 3, "lat": 42.0782217, "lng": -70.2263891, "obsValid": true, "obsReviewed": false, "locationPrivate": false, "subId": "S196805272"}, {"speciesCode": "comrav", "comName": "Common Raven", "sciName": "Corvus corax", "locId": "L737088", "locName": "Stellwagen Bank--Race Point Waters", "obsDt": "2024-09-28 16:20", "howMany": 3, "lat": 42.0745904, "lng": -70.264821, "obsValid": true, "obsReviewed": false, "locationPrivate": false, "subId": "S196826597"}, {"speciesCode": "dowwoo", "comName": "Downy Woodpecker", "sciName": "Dryobates pubescens", "locId": "L36921229", "locName": "805 Gifford Street Ext, Falmouth US-MA 41.58661, -70.60448", "obsDt": "2024-09-28 16:10", "howMany": 3, "lat": 41.58661, "lng": -70.604475, "obsValid": true, "obsReviewed": false, "locationPrivate": true, "subId": "S196795401"}, {"speciesCode": "eastow", "comName": "Eastern Towhee", "sciName": "Pipilo erythrophthalmus", "locId": "L36921229", "locName": "805 Gifford Street Ext, Falmouth US-MA 41.58661, -70.60448", "obsDt": "2024-09-28 16:10", "howMany": 3, "lat": 41.58661, "lng": -70.604475, "obsValid": true, "obsReviewed": false, "locationPrivate": true, "subId": "S196795401"}, {"speciesCode": "parjae", "comName": "Parasitic Jaeger", "sciName": "Stercorarius parasiticus", "locId": "L737088", "locName": "Stellwagen Bank--Race Point Waters", "obsDt": "2024-09-28 15:57", "howMany": 3, "lat": 42.0745904, "lng": -70.264821, "obsValid": true, "obsReviewed": false, "locationPrivate": false, "subId": "S196800033"}, {"speciesCode": "prawar", "comName": "Prairie Warbler", "sciName": "Setophaga discolor", "locId": "L737080", "locName": "Stellwagen Bank--SW Corner", "obsDt": "2024-09-28 14:38", "howMany": 3, "lat": 42.0961844, "lng": -70.3262329, "obsValid": true, "obsReviewed": false, "locationPrivate": false, "subId": "S196795940"}, {"speciesCode": "norpar", "comName": "Northern Parula", "sciName": "Setophaga americana", "locId": "L4292856", "locName": "Cape Cod Organic Farm", "obsDt": "2024-09-28 12:38", "howMany": 3, "lat": 41.6979064, "lng": -70.2887732, "obsValid": true, "obsReviewed": false, "locationPrivate": false, "subId": "S196785356"}, {"speciesCode": "virrai", "comName": "Virginia Rail", "sciName": "Rallus limicola", "locId": "L466636", "locName": "Herring River, Wellfleet", "obsDt": "2024-09-28 08:12", "howMany": 3, "lat": 41.9348807, "lng": -70.0597715, "obsValid": true, "obsReviewed": false, "locationPrivate": false, "subId": "S196743562"}, {"speciesCode": "amewig", "comName": "American Wigeon", "sciName": "Mareca americana", "locId": "L1273605", "locName": "Cotchpincut Rd. Landing", "obsDt": "2024-09-27 15:27", "howMany": 3, "lat": 41.7078238, "lng": -69.9537076, "obsValid": true, "obsReviewed": false, "locationPrivate": false, "subId": "S196655914"}, {"speciesCode": "rinduc", "comName": "Ring-necked Duck", "sciName": "Aythya collaris", "locId": "L20691399", "locName": "Monomoy Lighthouse Ponds", "obsDt": "2024-09-26 13:20", "howMany": 3, "lat": 41.559576, "lng": -69.994101, "obsValid": true, "obsReviewed": false, "locationPrivate": true, "subId": "S196565234"}, {"speciesCode": "y00475", "comName": "American Coot", "sciName": "Fulica americana", "locId": "L20691399", "locName": "Monomoy Lighthouse Ponds", "obsDt": "2024-09-26 13:20", "howMany": 3, "lat": 41.559576, "lng": -69.994101, "obsValid": true, "obsReviewed": true, "locationPrivate": true, "subId": "S196565234"}, {"speciesCode": "rebmer", "comName": "Red-breasted Merganser", "sciName": "Mergus serrator", "locId": "L467579", "locName": "High Head, Pilgrim Heights", "obsDt": "2024-09-26 09:23", "howMany": 3, "lat": 42.0563031, "lng": -70.1161194, "obsValid": true, "obsReviewed": false, "locationPrivate": false, "subId": "S196525104"}, {"speciesCode": "easowl1", "comName": "Eastern Screech-Owl", "sciName": "Megascops asio", "locId": "L2313395", "locName": "\"At Long Last\", Long Pond Road, Wellfleet, Massachusetts", "obsDt": "2024-09-28 21:00", "howMany": 2, "lat": 41.9451757, "lng": -70.0123474, "obsValid": true, "obsReviewed": false, "locationPrivate": true, "subId": "S196824749"}, {"speciesCode": "grbher3", "comName": "Great Blue Heron", "sciName": "Ardea herodias", "locId": "L4112278", "locName": "Barlows Landing Beach", "obsDt": "2024-09-28 19:05", "howMany": 2, "lat": 41.6911409, "lng": -70.6267154, "obsValid": true, "obsReviewed": false, "locationPrivate": false, "subId": "S196814387"}, {"speciesCode": "bkbplo", "comName": "Black-bellied Plover", "sciName": "Pluvialis squatarola", "locId": "L36925460", "locName": "Cole Beach", "obsDt": "2024-09-28 18:18", "howMany": 2, "lat": 41.8304515, "lng": -70.0040499, "obsValid": true, "obsReviewed": false, "locationPrivate": false, "subId": "S196814563"}, {"speciesCode": "rebnut", "comName": "Red-breasted Nuthatch", "sciName": "Sitta canadensis", "locId": "L6111645", "locName": "US-MA-Wellfleet-Drummer Cove - 41.9126x-69.9976", "obsDt": "2024-09-28 18:11", "howMany": 2, "lat": 41.912557, "lng": -69.997631, "obsValid": true, "obsReviewed": false, "locationPrivate": true, "subId": "S196816514"}, {"speciesCode": "greyel", "comName": "Greater Yellowlegs", "sciName": "Tringa melanoleuca", "locId": "L6111645", "locName": "US-MA-Wellfleet-Drummer Cove - 41.9126x-69.9976", "obsDt": "2024-09-28 18:11", "howMany": 2, "lat": 41.912557, "lng": -69.997631, "obsValid": true, "obsReviewed": false, "locationPrivate": true, "subId": "S196816514"}, {"speciesCode": "blujay", "comName": "Blue Jay", "sciName": "Cyanocitta cristata", "locId": "L6111645", "locName": "US-MA-Wellfleet-Drummer Cove - 41.9126x-69.9976", "obsDt": "2024-09-28 18:11", "howMany": 2, "lat": 41.912557, "lng": -69.997631, "obsValid": true, "obsReviewed": false, "locationPrivate": true, "subId": "S196816514"}, {"speciesCode": "tuftit", "comName": "Tufted Titmouse", "sciName": "Baeolophus bicolor", "locId": "L6111645", "locName": "US-MA-Wellfleet-Drummer Cove - 41.9126x-69.9976", "obsDt": "2024-09-28 18:11", "howMany": 2, "lat": 41.912557, "lng": -69.997631, "obsValid": true, "obsReviewed": false, "locationPrivate": true, "subId": "S196816514"}, {"speciesCode": "bkcchi", "comName": "Black-capped Chickadee", "sciName": "Poecile atricapillus", "locId": "L6111645", "locName": "US-MA-Wellfleet-Drummer Cove - 41.9126x-69.9976", "obsDt": "2024-09-28 18:11", "howMany": 2, "lat": 41.912557, "lng": -69.997631, "obsValid": true, "obsReviewed": false, "locationPrivate": true, "subId": "S196816514"}, {"speciesCode": "amecro", "comName": "American Crow", "sciName": "Corvus brachyrhynchos", "locId": "L14694738", "locName": "129\u2013151 Seapit Rd, East Falmouth, MA", "obsDt": "2024-09-28 17:43", "howMany": 2, "lat": 41.573187, "lng": -70.53159, "obsValid": true, "obsReviewed": false, "locationPrivate": true, "subId": "S196805314"}, {"speciesCode": "baleag", "comName": "Bald Eagle", "sciName": "Haliaeetus leucocephalus", "locId": "L14694738", "locName": "129\u2013151 Seapit Rd, East Falmouth, MA", "obsDt": "2024-09-28 17:43", "howMany": 2, "lat": 41.573187, "lng": -70.53159, "obsValid": true, "obsReviewed": false, "locationPrivate": true, "subId": "S196805314"}, {"speciesCode": "norfli", "comName": "Northern Flicker", "sciName": "Colaptes auratus", "locId": "L36925400", "locName": "McCoy Tree Farm", "obsDt": "2024-09-28 17:33", "howMany": 2, "lat": 41.7001935, "lng": -70.02177, "obsValid": true, "obsReviewed": false, "locationPrivate": false, "subId": "S196814358"}, {"speciesCode": "sonspa", "comName": "Song Sparrow", "sciName": "Melospiza melodia", "locId": "L36925400", "locName": "McCoy Tree Farm", "obsDt": "2024-09-28 17:33", "howMany": 2, "lat": 41.7001935, "lng": -70.02177, "obsValid": true, "obsReviewed": false, "locationPrivate": false, "subId": "S196814358"}, {"speciesCode": "comeid", "comName": "Common Eider", "sciName": "Somateria mollissima", "locId": "L36923879", "locName": "mini pelagic leg 4", "obsDt": "2024-09-28 16:58", "howMany": 2, "lat": 42.0493391, "lng": -70.2328613, "obsValid": true, "obsReviewed": false, "locationPrivate": true, "subId": "S196807135"}, {"speciesCode": "whwsco2", "comName": "White-winged Scoter", "sciName": "Melanitta deglandi", "locId": "L36923879", "locName": "mini pelagic leg 4", "obsDt": "2024-09-28 16:58", "howMany": 2, "lat": 42.0493391, "lng": -70.2328613, "obsValid": true, "obsReviewed": false, "locationPrivate": true, "subId": "S196807135"}, {"speciesCode": "sursco", "comName": "Surf Scoter", "sciName": "Melanitta perspicillata", "locId": "L489376", "locName": "Race Point Beach, Provincetown", "obsDt": "2024-09-28 16:25", "howMany": 2, "lat": 42.0782217, "lng": -70.2263891, "obsValid": true, "obsReviewed": false, "locationPrivate": false, "subId": "S196805272"}, {"speciesCode": "whbnut", "comName": "White-breasted Nuthatch", "sciName": "Sitta carolinensis", "locId": "L36921229", "locName": "805 Gifford Street Ext, Falmouth US-MA 41.58661, -70.60448", "obsDt": "2024-09-28 16:10", "howMany": 2, "lat": 41.58661, "lng": -70.604475, "obsValid": true, "obsReviewed": false, "locationPrivate": true, "subId": "S196795401"}, {"speciesCode": "palwar", "comName": "Palm Warbler", "sciName": "Setophaga palmarum", "locId": "L468673", "locName": "Frances A. Crane WMA", "obsDt": "2024-09-28 14:35", "howMany": 2, "lat": 41.6348031, "lng": -70.5607738, "obsValid": true, "obsReviewed": false, "locationPrivate": false, "subId": "S196827111"}, {"speciesCode": "amekes", "comName": "American Kestrel", "sciName": "Falco sparverius", "locId": "L468673", "locName": "Frances A. Crane WMA", "obsDt": "2024-09-28 14:35", "howMany": 2, "lat": 41.6348031, "lng": -70.5607738, "obsValid": true, "obsReviewed": false, "locationPrivate": false, "subId": "S196827111"}, {"speciesCode": "easmea", "comName": "Eastern Meadowlark", "sciName": "Sturnella magna", "locId": "L468673", "locName": "Frances A. Crane WMA", "obsDt": "2024-09-28 14:35", "howMany": 2, "lat": 41.6348031, "lng": -70.5607738, "obsValid": true, "obsReviewed": false, "locationPrivate": false, "subId": "S196827111"}, {"speciesCode": "norgan", "comName": "Northern Gannet", "sciName": "Morus bassanus", "locId": "L36918268", "locName": "mini pelagic leg 2", "obsDt": "2024-09-28 13:22", "howMany": 2, "lat": 42.0241429, "lng": -70.2145835, "obsValid": true, "obsReviewed": false, "locationPrivate": true, "subId": "S196782343"}, {"speciesCode": "ameoys", "comName": "American Oystercatcher", "sciName": "Haematopus palliatus", "locId": "L779308", "locName": "Forest Beach and Conservation Lands, Chatham", "obsDt": "2024-09-28 13:10", "howMany": 2, "lat": 41.6700588, "lng": -70.0253749, "obsValid": true, "obsReviewed": false, "locationPrivate": false, "subId": "S196788264"}, {"speciesCode": "rudtur", "comName": "Ruddy Turnstone", "sciName": "Arenaria interpres", "locId": "L779308", "locName": "Forest Beach and Conservation Lands, Chatham", "obsDt": "2024-09-28 13:10", "howMany": 2, "lat": 41.6700588, "lng": -70.0253749, "obsValid": true, "obsReviewed": false, "locationPrivate": false, "subId": "S196788264"}, {"speciesCode": "brnthr", "comName": "Brown Thrasher", "sciName": "Toxostoma rufum", "locId": "L4292856", "locName": "Cape Cod Organic Farm", "obsDt": "2024-09-28 12:38", "howMany": 2, "lat": 41.6979064, "lng": -70.2887732, "obsValid": true, "obsReviewed": false, "locationPrivate": false, "subId": "S196785356"}, {"speciesCode": "amered", "comName": "American Redstart", "sciName": "Setophaga ruticilla", "locId": "L4292856", "locName": "Cape Cod Organic Farm", "obsDt": "2024-09-28 12:38", "howMany": 2, "lat": 41.6979064, "lng": -70.2887732, "obsValid": true, "obsReviewed": false, "locationPrivate": false, "subId": "S196785356"}, {"speciesCode": "rethaw", "comName": "Red-tailed Hawk", "sciName": "Buteo jamaicensis", "locId": "L4292856", "locName": "Cape Cod Organic Farm", "obsDt": "2024-09-28 12:38", "howMany": 2, "lat": 41.6979064, "lng": -70.2887732, "obsValid": true, "obsReviewed": false, "locationPrivate": false, "subId": "S196785356"}, {"speciesCode": "bkpwar", "comName": "Blackpoll Warbler", "sciName": "Setophaga striata", "locId": "L4292856", "locName": "Cape Cod Organic Farm", "obsDt": "2024-09-28 12:38", "howMany": 2, "lat": 41.6979064, "lng": -70.2887732, "obsValid": true, "obsReviewed": false, "locationPrivate": false, "subId": "S196785356"}, {"speciesCode": "ruckin", "comName": "Ruby-crowned Kinglet", "sciName": "Corthylio calendula", "locId": "L207462", "locName": "Wellfleet Bay Wildlife Sanctuary (Mass Audubon)", "obsDt": "2024-09-28 10:01", "howMany": 2, "lat": 41.8825315, "lng": -69.995712, "obsValid": true, "obsReviewed": false, "locationPrivate": false, "subId": "S196749518"}, {"speciesCode": "shshaw", "comName": "Sharp-shinned Hawk", "sciName": "Accipiter striatus", "locId": "L474804", "locName": "Sandy Neck", "obsDt": "2024-09-28 07:07", "howMany": 2, "lat": 41.7353901, "lng": -70.3512096, "obsValid": true, "obsReviewed": false, "locationPrivate": false, "subId": "S196743165"}, {"speciesCode": "margod", "comName": "Marbled Godwit", "sciName": "Limosa fedoa", "locId": "L3475826", "locName": "Monomoy NWR--Powder Hole", "obsDt": "2024-09-27 15:45", "howMany": 2, "lat": 41.5549318, "lng": -70.0047648, "obsValid": true, "obsReviewed": false, "locationPrivate": false, "subId": "S196663281"}, {"speciesCode": "hudgod", "comName": "Hudsonian Godwit", "sciName": "Limosa haemastica", "locId": "L3475826", "locName": "Monomoy NWR--Powder Hole", "obsDt": "2024-09-27 15:45", "howMany": 2, "lat": 41.5549318, "lng": -70.0047648, "obsValid": true, "obsReviewed": false, "locationPrivate": false, "subId": "S196663281"}, {"speciesCode": "wooduc", "comName": "Wood Duck", "sciName": "Aix sponsa", "locId": "L3642110", "locName": "Santuit Pond", "obsDt": "2024-09-27 09:27", "howMany": 2, "lat": 41.6552018, "lng": -70.4597425, "obsValid": true, "obsReviewed": false, "locationPrivate": false, "subId": "S196646700"}, {"speciesCode": "pibgre", "comName": "Pied-billed Grebe", "sciName": "Podilymbus podiceps", "locId": "L20691399", "locName": "Monomoy Lighthouse Ponds", "obsDt": "2024-09-26 13:20", "howMany": 2, "lat": 41.559576, "lng": -69.994101, "obsValid": true, "obsReviewed": false, "locationPrivate": true, "subId": "S196565234"}, {"speciesCode": "blugrb1", "comName": "Blue Grosbeak", "sciName": "Passerina caerulea", "locId": "L27196433", "locName": "Putnam Farm Conservation Area", "obsDt": "2024-09-24 07:30", "howMany": 2, "lat": 41.8003074, "lng": -69.9881977, "obsValid": true, "obsReviewed": true, "locationPrivate": false, "subId": "S196356614"}, {"speciesCode": "sstspa", "comName": "Saltmarsh Sparrow", "sciName": "Ammospiza caudacuta", "locId": "L207462", "locName": "Wellfleet Bay Wildlife Sanctuary (Mass Audubon)", "obsDt": "2024-09-24 06:14", "howMany": 2, "lat": 41.8825315, "lng": -69.995712, "obsValid": true, "obsReviewed": false, "locationPrivate": false, "subId": "S196319433"}, {"speciesCode": "grnher", "comName": "Green Heron", "sciName": "Butorides virescens", "locId": "L4112278", "locName": "Barlows Landing Beach", "obsDt": "2024-09-28 19:05", "howMany": 1, "lat": 41.6911409, "lng": -70.6267154, "obsValid": true, "obsReviewed": false, "locationPrivate": false, "subId": "S196814387"}, {"speciesCode": "comloo", "comName": "Common Loon", "sciName": "Gavia immer", "locId": "L36925460", "locName": "Cole Beach", "obsDt": "2024-09-28 18:18", "howMany": 1, "lat": 41.8304515, "lng": -70.0040499, "obsValid": true, "obsReviewed": false, "locationPrivate": false, "subId": "S196814563"}, {"speciesCode": "grycat", "comName": "Gray Catbird", "sciName": "Dumetella carolinensis", "locId": "L36925460", "locName": "Cole Beach", "obsDt": "2024-09-28 18:18", "howMany": 1, "lat": 41.8304515, "lng": -70.0040499, "obsValid": true, "obsReviewed": false, "locationPrivate": false, "subId": "S196814563"}, {"speciesCode": "norcar", "comName": "Northern Cardinal", "sciName": "Cardinalis cardinalis", "locId": "L36925460", "locName": "Cole Beach", "obsDt": "2024-09-28 18:18", "howMany": 1, "lat": 41.8304515, "lng": -70.0040499, "obsValid": true, "obsReviewed": false, "locationPrivate": false, "subId": "S196814563"}, {"speciesCode": "carwre", "comName": "Carolina Wren", "sciName": "Thryothorus ludovicianus", "locId": "L6111645", "locName": "US-MA-Wellfleet-Drummer Cove - 41.9126x-69.9976", "obsDt": "2024-09-28 18:11", "howMany": 1, "lat": 41.912557, "lng": -69.997631, "obsValid": true, "obsReviewed": false, "locationPrivate": true, "subId": "S196816514"}, {"speciesCode": "sposan", "comName": "Spotted Sandpiper", "sciName": "Actitis macularius", "locId": "L36925400", "locName": "McCoy Tree Farm", "obsDt": "2024-09-28 17:33", "howMany": 1, "lat": 41.7001935, "lng": -70.02177, "obsValid": true, "obsReviewed": false, "locationPrivate": false, "subId": "S196814358"}, {"speciesCode": "rebwoo", "comName": "Red-bellied Woodpecker", "sciName": "Melanerpes carolinus", "locId": "L36925400", "locName": "McCoy Tree Farm", "obsDt": "2024-09-28 17:33", "howMany": 1, "lat": 41.7001935, "lng": -70.02177, "obsValid": true, "obsReviewed": false, "locationPrivate": false, "subId": "S196814358"}, {"speciesCode": "pipplo", "comName": "Piping Plover", "sciName": "Charadrius melodus", "locId": "L474804", "locName": "Sandy Neck", "obsDt": "2024-09-28 17:23", "howMany": 1, "lat": 41.7353901, "lng": -70.3512096, "obsValid": true, "obsReviewed": false, "locationPrivate": false, "subId": "S196809491"}, {"speciesCode": "greegr", "comName": "Great Egret", "sciName": "Ardea alba", "locId": "L14513402", "locName": "Veterans Park Beach", "obsDt": "2024-09-28 17:23", "howMany": 1, "lat": 41.6411047, "lng": -70.278554, "obsValid": true, "obsReviewed": false, "locationPrivate": false, "subId": "S196805120"}, {"speciesCode": "amegfi", "comName": "American Goldfinch", "sciName": "Spinus tristis", "locId": "L36924130", "locName": "Mill Pond, Chatham US-MA (41.6983,-70.0270)", "obsDt": "2024-09-28 17:20", "howMany": 1, "lat": 41.698337, "lng": -70.027042, "obsValid": true, "obsReviewed": false, "locationPrivate": true, "subId": "S196808357"}, {"speciesCode": "whtspa", "comName": "White-throated Sparrow", "sciName": "Zonotrichia albicollis", "locId": "L12762057", "locName": "Nickerson SP--Flax Pond", "obsDt": "2024-09-28 17:11", "howMany": 1, "lat": 41.7666404, "lng": -70.0262504, "obsValid": true, "obsReviewed": false, "locationPrivate": false, "subId": "S196802293"}, {"speciesCode": "corshe", "comName": "Cory's Shearwater", "sciName": "Calonectris diomedea", "locId": "L489376", "locName": "Race Point Beach, Provincetown", "obsDt": "2024-09-28 16:25", "howMany": 1, "lat": 42.0782217, "lng": -70.2263891, "obsValid": true, "obsReviewed": false, "locationPrivate": false, "subId": "S196805272"}, {"speciesCode": "savspa", "comName": "Savannah Sparrow", "sciName": "Passerculus sandwichensis", "locId": "L737088", "locName": "Stellwagen Bank--Race Point Waters", "obsDt": "2024-09-28 16:20", "howMany": 1, "lat": 42.0745904, "lng": -70.264821, "obsValid": true, "obsReviewed": false, "locationPrivate": false, "subId": "S196826597"}, {"speciesCode": "easpho", "comName": "Eastern Phoebe", "sciName": "Sayornis phoebe", "locId": "L36921229", "locName": "805 Gifford Street Ext, Falmouth US-MA 41.58661, -70.60448", "obsDt": "2024-09-28 16:10", "howMany": 1, "lat": 41.58661, "lng": -70.604475, "obsValid": true, "obsReviewed": false, "locationPrivate": true, "subId": "S196795401"}, {"speciesCode": "forter", "comName": "Forster's Tern", "sciName": "Sterna forsteri", "locId": "L737088", "locName": "Stellwagen Bank--Race Point Waters", "obsDt": "2024-09-28 15:57", "howMany": 1, "lat": 42.0745904, "lng": -70.264821, "obsValid": true, "obsReviewed": false, "locationPrivate": false, "subId": "S196800033"}, {"speciesCode": "manshe", "comName": "Manx Shearwater", "sciName": "Puffinus puffinus", "locId": "L737088", "locName": "Stellwagen Bank--Race Point Waters", "obsDt": "2024-09-28 15:57", "howMany": 1, "lat": 42.0745904, "lng": -70.264821, "obsValid": true, "obsReviewed": false, "locationPrivate": false, "subId": "S196800033"}, {"speciesCode": "pinwar", "comName": "Pine Warbler", "sciName": "Setophaga pinus", "locId": "L1842190", "locName": "Cape Cod National Seashore--Province Lands Visitor Center", "obsDt": "2024-09-28 15:57", "howMany": 1, "lat": 42.0737502, "lng": -70.2056259, "obsValid": true, "obsReviewed": false, "locationPrivate": false, "subId": "S196805288"}, {"speciesCode": "dunlin", "comName": "Dunlin", "sciName": "Calidris alpina", "locId": "L464527", "locName": "First Encounter Beach", "obsDt": "2024-09-28 15:45", "lat": 41.8215025, "lng": -70.0037241, "obsValid": true, "obsReviewed": false, "locationPrivate": false, "subId": "S196826150", "howMany": 1}, {"speciesCode": "haiwoo", "comName": "Hairy Woodpecker", "sciName": "Dryobates villosus", "locId": "L692829", "locName": "Bell's Neck Conservation Area (HCT)", "obsDt": "2024-09-28 15:18", "howMany": 1, "lat": 41.6840342, "lng": -70.1129007, "obsValid": true, "obsReviewed": false, "locationPrivate": false, "subId": "S196792615"}, {"speciesCode": "belkin1", "comName": "Belted Kingfisher", "sciName": "Megaceryle alcyon", "locId": "L692829", "locName": "Bell's Neck Conservation Area (HCT)", "obsDt": "2024-09-28 15:18", "howMany": 1, "lat": 41.6840342, "lng": -70.1129007, "obsValid": true, "obsReviewed": false, "locationPrivate": false, "subId": "S196792615"}, {"speciesCode": "normoc", "comName": "Northern Mockingbird", "sciName": "Mimus polyglottos", "locId": "L36919939", "locName": "75 Shore Road, Truro, Massachusetts, US (42.05, -70.119)", "obsDt": "2024-09-28 15:09", "howMany": 1, "lat": 42.0500982, "lng": -70.1194775, "obsValid": true, "obsReviewed": false, "locationPrivate": true, "subId": "S196789978"}, {"speciesCode": "bkbcuc", "comName": "Black-billed Cuckoo", "sciName": "Coccyzus erythropthalmus", "locId": "L36926964", "locName": "Province Lands National Seashore", "obsDt": "2024-09-28 15:00", "howMany": 1, "lat": 42.0651693, "lng": -70.215707, "obsValid": true, "obsReviewed": false, "locationPrivate": true, "subId": "S196822760"}, {"speciesCode": "houfin", "comName": "House Finch", "sciName": "Haemorhous mexicanus", "locId": "L468673", "locName": "Frances A. Crane WMA", "obsDt": "2024-09-28 14:35", "howMany": 1, "lat": 41.6348031, "lng": -70.5607738, "obsValid": true, "obsReviewed": false, "locationPrivate": false, "subId": "S196827111", "exoticCategory": "N"}, {"speciesCode": "graspa", "comName": "Grasshopper Sparrow", "sciName": "Ammodramus savannarum", "locId": "L468673", "locName": "Frances A. Crane WMA", "obsDt": "2024-09-28 14:35", "howMany": 1, "lat": 41.6348031, "lng": -70.5607738, "obsValid": true, "obsReviewed": false, "locationPrivate": false, "subId": "S196827111"}, {"speciesCode": "coohaw", "comName": "Cooper's Hawk", "sciName": "Accipiter cooperii", "locId": "L468673", "locName": "Frances A. Crane WMA", "obsDt": "2024-09-28 14:35", "howMany": 1, "lat": 41.6348031, "lng": -70.5607738, "obsValid": true, "obsReviewed": false, "locationPrivate": false, "subId": "S196827111"}, {"speciesCode": "boboli", "comName": "Bobolink", "sciName": "Dolichonyx oryzivorus", "locId": "L468673", "locName": "Frances A. Crane WMA", "obsDt": "2024-09-28 14:35", "howMany": 1, "lat": 41.6348031, "lng": -70.5607738, "obsValid": true, "obsReviewed": false, "locationPrivate": false, "subId": "S196827111"}, {"speciesCode": "norhar2", "comName": "Northern Harrier", "sciName": "Circus hudsonius", "locId": "L468673", "locName": "Frances A. Crane WMA", "obsDt": "2024-09-28 14:35", "howMany": 1, "lat": 41.6348031, "lng": -70.5607738, "obsValid": true, "obsReviewed": false, "locationPrivate": false, "subId": "S196827111"}, {"speciesCode": "amerob", "comName": "American Robin", "sciName": "Turdus migratorius", "locId": "L468673", "locName": "Frances A. Crane WMA", "obsDt": "2024-09-28 14:35", "howMany": 1, "lat": 41.6348031, "lng": -70.5607738, "obsValid": true, "obsReviewed": false, "locationPrivate": false, "subId": "S196827111"}, {"speciesCode": "rthhum", "comName": "Ruby-throated Hummingbird", "sciName": "Archilochus colubris", "locId": "L36917521", "locName": "154 Owl Pond Rd, Brewster US-MA 41.77183, -70.01478", "obsDt": "2024-09-28 14:00", "howMany": 1, "lat": 41.771828, "lng": -70.014781, "obsValid": true, "obsReviewed": false, "locationPrivate": true, "subId": "S196779000"}, {"speciesCode": "norful", "comName": "Northern Fulmar", "sciName": "Fulmarus glacialis", "locId": "L36918268", "locName": "mini pelagic leg 2", "obsDt": "2024-09-28 13:22", "howMany": 1, "lat": 42.0241429, "lng": -70.2145835, "obsValid": true, "obsReviewed": false, "locationPrivate": true, "subId": "S196782343"}, {"speciesCode": "lesyel", "comName": "Lesser Yellowlegs", "sciName": "Tringa flavipes", "locId": "L779308", "locName": "Forest Beach and Conservation Lands, Chatham", "obsDt": "2024-09-28 13:10", "howMany": 1, "lat": 41.6700588, "lng": -70.0253749, "obsValid": true, "obsReviewed": false, "locationPrivate": false, "subId": "S196788264"}, {"speciesCode": "osprey", "comName": "Osprey", "sciName": "Pandion haliaetus", "locId": "L779308", "locName": "Forest Beach and Conservation Lands, Chatham", "obsDt": "2024-09-28 13:10", "howMany": 1, "lat": 41.6700588, "lng": -70.0253749, "obsValid": true, "obsReviewed": false, "locationPrivate": false, "subId": "S196788264"}, {"speciesCode": "fiscro", "comName": "Fish Crow", "sciName": "Corvus ossifragus", "locId": "L779308", "locName": "Forest Beach and Conservation Lands, Chatham", "obsDt": "2024-09-28 13:10", "howMany": 1, "lat": 41.6700588, "lng": -70.0253749, "obsValid": true, "obsReviewed": false, "locationPrivate": false, "subId": "S196788264"}, {"speciesCode": "swaspa", "comName": "Swamp Sparrow", "sciName": "Melospiza georgiana", "locId": "L4292856", "locName": "Cape Cod Organic Farm", "obsDt": "2024-09-28 12:38", "howMany": 1, "lat": 41.6979064, "lng": -70.2887732, "obsValid": true, "obsReviewed": false, "locationPrivate": false, "subId": "S196785356"}, {"speciesCode": "houwre", "comName": "House Wren", "sciName": "Troglodytes aedon", "locId": "L4292856", "locName": "Cape Cod Organic Farm", "obsDt": "2024-09-28 12:38", "howMany": 1, "lat": 41.6979064, "lng": -70.2887732, "obsValid": true, "obsReviewed": false, "locationPrivate": false, "subId": "S196785356"}, {"speciesCode": "buhvir", "comName": "Blue-headed Vireo", "sciName": "Vireo solitarius", "locId": "L4292856", "locName": "Cape Cod Organic Farm", "obsDt": "2024-09-28 12:38", "howMany": 1, "lat": 41.6979064, "lng": -70.2887732, "obsValid": true, "obsReviewed": false, "locationPrivate": false, "subId": "S196785356"}, {"speciesCode": "balori", "comName": "Baltimore Oriole", "sciName": "Icterus galbula", "locId": "L4292856", "locName": "Cape Cod Organic Farm", "obsDt": "2024-09-28 12:38", "howMany": 1, "lat": 41.6979064, "lng": -70.2887732, "obsValid": true, "obsReviewed": false, "locationPrivate": false, "subId": "S196785356"}, {"speciesCode": "naswar", "comName": "Nashville Warbler", "sciName": "Leiothlypis ruficapilla", "locId": "L4292856", "locName": "Cape Cod Organic Farm", "obsDt": "2024-09-28 12:38", "howMany": 1, "lat": 41.6979064, "lng": -70.2887732, "obsValid": true, "obsReviewed": false, "locationPrivate": false, "subId": "S196785356"}, {"speciesCode": "merlin", "comName": "Merlin", "sciName": "Falco columbarius", "locId": "L4292856", "locName": "Cape Cod Organic Farm", "obsDt": "2024-09-28 12:38", "howMany": 1, "lat": 41.6979064, "lng": -70.2887732, "obsValid": true, "obsReviewed": false, "locationPrivate": false, "subId": "S196785356"}, {"speciesCode": "robgro", "comName": "Rose-breasted Grosbeak", "sciName": "Pheucticus ludovicianus", "locId": "L4292856", "locName": "Cape Cod Organic Farm", "obsDt": "2024-09-28 12:38", "howMany": 1, "lat": 41.6979064, "lng": -70.2887732, "obsValid": true, "obsReviewed": false, "locationPrivate": false, "subId": "S196785356"}, {"speciesCode": "comyel", "comName": "Common Yellowthroat", "sciName": "Geothlypis trichas", "locId": "L4292856", "locName": "Cape Cod Organic Farm", "obsDt": "2024-09-28 12:38", "howMany": 1, "lat": 41.6979064, "lng": -70.2887732, "obsValid": true, "obsReviewed": false, "locationPrivate": false, "subId": "S196785356"}, {"speciesCode": "amepip", "comName": "American Pipit", "sciName": "Anthus rubescens", "locId": "L36917672", "locName": "66 Kendrick Ave, Wellfleet US-MA (41.9313,-70.0325)", "obsDt": "2024-09-28 12:05", "howMany": 1, "lat": 41.931256, "lng": -70.032523, "obsValid": true, "obsReviewed": false, "locationPrivate": true, "subId": "S196779674"}, {"speciesCode": "eursta", "comName": "European Starling", "sciName": "Sturnus vulgaris", "locId": "L193141", "locName": "Sandwich Marina", "obsDt": "2024-09-28 11:21", "lat": 41.7736623, "lng": -70.4996526, "obsValid": true, "obsReviewed": false, "locationPrivate": false, "subId": "S196777415", "exoticCategory": "N", "howMany": 1}, {"speciesCode": "reshaw", "comName": "Red-shouldered Hawk", "sciName": "Buteo lineatus", "locId": "L36911653", "locName": "23 Canal St, Sagamore Beach US-MA (41.7789,-70.5409)", "obsDt": "2024-09-28 11:18", "howMany": 1, "lat": 41.778928, "lng": -70.540885, "obsValid": true, "obsReviewed": false, "locationPrivate": true, "subId": "S196752840"}, {"speciesCode": "redkno", "comName": "Red Knot", "sciName": "Calidris canutus", "locId": "L23740366", "locName": "Mayflower Beach, Dennis", "obsDt": "2024-09-28 11:10", "howMany": 1, "lat": 41.7433317, "lng": -70.2178288, "obsValid": true, "obsReviewed": false, "locationPrivate": false, "subId": "S196765604"}, {"speciesCode": "buggna", "comName": "Blue-gray Gnatcatcher", "sciName": "Polioptila caerulea", "locId": "L466873", "locName": "Scusset Beach State Reservation", "obsDt": "2024-09-28 10:09", "howMany": 1, "lat": 41.7781927, "lng": -70.500555, "obsValid": true, "obsReviewed": false, "locationPrivate": false, "subId": "S196745027"}, {"speciesCode": "brncre", "comName": "Brown Creeper", "sciName": "Certhia americana", "locId": "L207462", "locName": "Wellfleet Bay Wildlife Sanctuary (Mass Audubon)", "obsDt": "2024-09-28 10:01", "howMany": 1, "lat": 41.8825315, "lng": -69.995712, "obsValid": true, "obsReviewed": false, "locationPrivate": false, "subId": "S196749518"}, {"speciesCode": "chiswi", "comName": "Chimney Swift", "sciName": "Chaetura pelagica", "locId": "L207462", "locName": "Wellfleet Bay Wildlife Sanctuary (Mass Audubon)", "obsDt": "2024-09-28 10:01", "howMany": 1, "lat": 41.8825315, "lng": -69.995712, "obsValid": true, "obsReviewed": false, "locationPrivate": false, "subId": "S196749518"}, {"speciesCode": "perfal", "comName": "Peregrine Falcon", "sciName": "Falco peregrinus", "locId": "L466873", "locName": "Scusset Beach State Reservation", "obsDt": "2024-09-28 09:38", "howMany": 1, "lat": 41.7781927, "lng": -70.500555, "obsValid": true, "obsReviewed": false, "locationPrivate": false, "subId": "S196739338"}, {"speciesCode": "bawwar", "comName": "Black-and-white Warbler", "sciName": "Mniotilta varia", "locId": "L466873", "locName": "Scusset Beach State Reservation", "obsDt": "2024-09-28 09:38", "howMany": 1, "lat": 41.7781927, "lng": -70.500555, "obsValid": true, "obsReviewed": false, "locationPrivate": false, "subId": "S196739338"}, {"speciesCode": "magwar", "comName": "Magnolia Warbler", "sciName": "Setophaga magnolia", "locId": "L1367015", "locName": "Waquoit Farms Drive East Falmouth", "obsDt": "2024-09-28 09:13", "howMany": 1, "lat": 41.589021, "lng": -70.52892, "obsValid": true, "obsReviewed": false, "locationPrivate": true, "subId": "S196735229"}, {"speciesCode": "btnwar", "comName": "Black-throated Green Warbler", "sciName": "Setophaga virens", "locId": "L1367015", "locName": "Waquoit Farms Drive East Falmouth", "obsDt": "2024-09-28 09:13", "howMany": 1, "lat": 41.589021, "lng": -70.52892, "obsValid": true, "obsReviewed": false, "locationPrivate": true, "subId": "S196735229"}, {"speciesCode": "bcnher", "comName": "Black-crowned Night Heron", "sciName": "Nycticorax nycticorax", "locId": "L692829", "locName": "Bell's Neck Conservation Area (HCT)", "obsDt": "2024-09-28 09:00", "howMany": 1, "lat": 41.6840342, "lng": -70.1129007, "obsValid": true, "obsReviewed": false, "locationPrivate": false, "subId": "S196749487"}, {"speciesCode": "bnhcow", "comName": "Brown-headed Cowbird", "sciName": "Molothrus ater", "locId": "L823350", "locName": "Thompson's Field--North of Cape Cod Rail Trail", "obsDt": "2024-09-28 08:51", "howMany": 1, "lat": 41.6906041, "lng": -70.053463, "obsValid": true, "obsReviewed": false, "locationPrivate": false, "subId": "S196757979"}, {"speciesCode": "indbun", "comName": "Indigo Bunting", "sciName": "Passerina cyanea", "locId": "L466636", "locName": "Herring River, Wellfleet", "obsDt": "2024-09-28 08:12", "howMany": 1, "lat": 41.9348807, "lng": -70.0597715, "obsValid": true, "obsReviewed": false, "locationPrivate": false, "subId": "S196743562"}, {"speciesCode": "ovenbi1", "comName": "Ovenbird", "sciName": "Seiurus aurocapilla", "locId": "L466636", "locName": "Herring River, Wellfleet", "obsDt": "2024-09-28 08:12", "howMany": 1, "lat": 41.9348807, "lng": -70.0597715, "obsValid": true, "obsReviewed": false, "locationPrivate": false, "subId": "S196743562"}, {"speciesCode": "linspa", "comName": "Lincoln's Sparrow", "sciName": "Melospiza lincolnii", "locId": "L466636", "locName": "Herring River, Wellfleet", "obsDt": "2024-09-28 08:12", "howMany": 1, "lat": 41.9348807, "lng": -70.0597715, "obsValid": true, "obsReviewed": false, "locationPrivate": false, "subId": "S196743562"}, {"speciesCode": "yebcuc", "comName": "Yellow-billed Cuckoo", "sciName": "Coccyzus americanus", "locId": "L466636", "locName": "Herring River, Wellfleet", "obsDt": "2024-09-28 08:12", "howMany": 1, "lat": 41.9348807, "lng": -70.0597715, "obsValid": true, "obsReviewed": false, "locationPrivate": false, "subId": "S196743562"}, {"speciesCode": "yebcha", "comName": "Yellow-breasted Chat", "sciName": "Icteria virens", "locId": "L5106161", "locName": "Sandy Neck--Sandy Neck Beach", "obsDt": "2024-09-28 07:43", "howMany": 1, "lat": 41.7391369, "lng": -70.3801775, "obsValid": true, "obsReviewed": false, "locationPrivate": false, "subId": "S196763448"}, {"speciesCode": "daejun", "comName": "Dark-eyed Junco", "sciName": "Junco hyemalis", "locId": "L5106161", "locName": "Sandy Neck--Sandy Neck Beach", "obsDt": "2024-09-28 07:43", "howMany": 1, "lat": 41.7391369, "lng": -70.3801775, "obsValid": true, "obsReviewed": false, "locationPrivate": false, "subId": "S196763448"}, {"speciesCode": "purfin", "comName": "Purple Finch", "sciName": "Haemorhous purpureus", "locId": "L5106161", "locName": "Sandy Neck--Sandy Neck Beach", "obsDt": "2024-09-28 07:43", "howMany": 1, "lat": 41.7391369, "lng": -70.3801775, "obsValid": true, "obsReviewed": false, "locationPrivate": false, "subId": "S196763448"}, {"speciesCode": "seaspa", "comName": "Seaside Sparrow", "sciName": "Ammospiza maritima", "locId": "L474804", "locName": "Sandy Neck", "obsDt": "2024-09-28 07:07", "howMany": 1, "lat": 41.7353901, "lng": -70.3512096, "obsValid": true, "obsReviewed": false, "locationPrivate": false, "subId": "S196743165"}, {"speciesCode": "btbwar", "comName": "Black-throated Blue Warbler", "sciName": "Setophaga caerulescens", "locId": "L474804", "locName": "Sandy Neck", "obsDt": "2024-09-28 07:07", "howMany": 1, "lat": 41.7353901, "lng": -70.3512096, "obsValid": true, "obsReviewed": false, "locationPrivate": false, "subId": "S196743165"}, {"speciesCode": "gockin", "comName": "Golden-crowned Kinglet", "sciName": "Regulus satrapa", "locId": "L474804", "locName": "Sandy Neck", "obsDt": "2024-09-28 07:07", "howMany": 1, "lat": 41.7353901, "lng": -70.3512096, "obsValid": true, "obsReviewed": false, "locationPrivate": false, "subId": "S196743165"}, {"speciesCode": "yebfly", "comName": "Yellow-bellied Flycatcher", "sciName": "Empidonax flaviventris", "locId": "L30737058", "locName": "Bound Brook Island, Wellfleet", "obsDt": "2024-09-28 07:03", "howMany": 1, "lat": 41.9547766, "lng": -70.0645901, "obsValid": true, "obsReviewed": true, "locationPrivate": false, "subId": "S196717248"}, {"speciesCode": "conwar", "comName": "Connecticut Warbler", "sciName": "Oporornis agilis", "locId": "L30737058", "locName": "Bound Brook Island, Wellfleet", "obsDt": "2024-09-28 07:03", "howMany": 1, "lat": 41.9547766, "lng": -70.0645901, "obsValid": true, "obsReviewed": true, "locationPrivate": false, "subId": "S196717248"}, {"speciesCode": "eawpew", "comName": "Eastern Wood-Pewee", "sciName": "Contopus virens", "locId": "L30737058", "locName": "Bound Brook Island, Wellfleet", "obsDt": "2024-09-28 07:03", "howMany": 1, "lat": 41.9547766, "lng": -70.0645901, "obsValid": true, "obsReviewed": false, "locationPrivate": false, "subId": "S196717248"}, {"speciesCode": "herthr", "comName": "Hermit Thrush", "sciName": "Catharus guttatus", "locId": "L30737058", "locName": "Bound Brook Island, Wellfleet", "obsDt": "2024-09-28 07:03", "howMany": 1, "lat": 41.9547766, "lng": -70.0645901, "obsValid": true, "obsReviewed": false, "locationPrivate": false, "subId": "S196717248"}, {"speciesCode": "phivir", "comName": "Philadelphia Vireo", "sciName": "Vireo philadelphicus", "locId": "L466873", "locName": "Scusset Beach State Reservation", "obsDt": "2024-09-28 06:51", "howMany": 1, "lat": 41.7781927, "lng": -70.500555, "obsValid": true, "obsReviewed": false, "locationPrivate": false, "subId": "S196754146"}, {"speciesCode": "yebsap", "comName": "Yellow-bellied Sapsucker", "sciName": "Sphyrapicus varius", "locId": "L23242595", "locName": "95 Race Point Road, Provincetown, Massachusetts, US (42.062, -70.191)", "obsDt": "2024-09-28 06:45", "howMany": 1, "lat": 42.0623745, "lng": -70.1914677, "obsValid": true, "obsReviewed": false, "locationPrivate": true, "subId": "S196811612"}, {"speciesCode": "grhowl", "comName": "Great Horned Owl", "sciName": "Bubo virginianus", "locId": "L4042592", "locName": "Hay Conservation Center", "obsDt": "2024-09-28 06:30", "howMany": 1, "lat": 41.7401616, "lng": -70.133822, "obsValid": true, "obsReviewed": false, "locationPrivate": false, "subId": "S196816163"}, {"speciesCode": "retloo", "comName": "Red-throated Loon", "sciName": "Gavia stellata", "locId": "L364733", "locName": "Race Point", "obsDt": "2024-09-28 06:28", "howMany": 1, "lat": 42.0691855, "lng": -70.2381706, "obsValid": true, "obsReviewed": false, "locationPrivate": false, "subId": "S196783472"}, {"speciesCode": "sooshe", "comName": "Sooty Shearwater", "sciName": "Ardenna grisea", "locId": "L364733", "locName": "Race Point", "obsDt": "2024-09-28 06:28", "howMany": 1, "lat": 42.0691855, "lng": -70.2381706, "obsValid": true, "obsReviewed": false, "locationPrivate": false, "subId": "S196783472"}, {"speciesCode": "clarai11", "comName": "Clapper Rail", "sciName": "Rallus crepitans", "locId": "L248063", "locName": "Chatham", "obsDt": "2024-09-28 06:25", "howMany": 1, "lat": 41.68201, "lng": -69.95976, "obsValid": true, "obsReviewed": false, "locationPrivate": true, "subId": "S196811390"}, {"speciesCode": "gadwal", "comName": "Gadwall", "sciName": "Mareca strepera", "locId": "L248063", "locName": "Chatham", "obsDt": "2024-09-28 06:25", "howMany": 1, "lat": 41.68201, "lng": -69.95976, "obsValid": true, "obsReviewed": false, "locationPrivate": true, "subId": "S196811390"}, {"speciesCode": "bongul", "comName": "Bonaparte's Gull", "sciName": "Chroicocephalus philadelphia", "locId": "L248063", "locName": "Chatham", "obsDt": "2024-09-28 06:25", "howMany": 1, "lat": 41.68201, "lng": -69.95976, "obsValid": true, "obsReviewed": false, "locationPrivate": true, "subId": "S196811390"}, {"speciesCode": "grecor", "comName": "Great Cormorant", "sciName": "Phalacrocorax carbo", "locId": "L248063", "locName": "Chatham", "obsDt": "2024-09-28 06:25", "howMany": 1, "lat": 41.68201, "lng": -69.95976, "obsValid": true, "obsReviewed": false, "locationPrivate": true, "subId": "S196811390"}, {"speciesCode": "whimbr", "comName": "Whimbrel", "sciName": "Numenius phaeopus", "locId": "L248063", "locName": "Chatham", "obsDt": "2024-09-28 06:25", "howMany": 1, "lat": 41.68201, "lng": -69.95976, "obsValid": true, "obsReviewed": false, "locationPrivate": true, "subId": "S196811390"}, {"speciesCode": "baisan", "comName": "Baird's Sandpiper", "sciName": "Calidris bairdii", "locId": "L364733", "locName": "Race Point", "obsDt": "2024-09-28 06:15", "howMany": 1, "lat": 42.0691855, "lng": -70.2381706, "obsValid": true, "obsReviewed": true, "locationPrivate": false, "subId": "S196739705"}, {"speciesCode": "pacloo", "comName": "Pacific Loon", "sciName": "Gavia pacifica", "locId": "L364733", "locName": "Race Point", "obsDt": "2024-09-28 06:15", "howMany": 1, "lat": 42.0691855, "lng": -70.2381706, "obsValid": true, "obsReviewed": true, "locationPrivate": false, "subId": "S196739705"}, {"speciesCode": "brnpel", "comName": "Brown Pelican", "sciName": "Pelecanus occidentalis", "locId": "L36889287", "locName": "Cape Cod Bay, North Eastham US-MA (41.8365,-70.0056)", "obsDt": "2024-09-27 15:18", "howMany": 1, "lat": 41.836529, "lng": -70.005602, "obsValid": true, "obsReviewed": true, "locationPrivate": true, "subId": "S196653589"}, {"speciesCode": "comgal1", "comName": "Common Gallinule", "sciName": "Gallinula galeata", "locId": "L466636", "locName": "Herring River, Wellfleet", "obsDt": "2024-09-27 15:00", "howMany": 1, "lat": 41.9348807, "lng": -70.0597715, "obsValid": true, "obsReviewed": true, "locationPrivate": false, "subId": "S196678125"}, {"speciesCode": "easkin", "comName": "Eastern Kingbird", "sciName": "Tyrannus tyrannus", "locId": "L26200505", "locName": "Eel Pond", "obsDt": "2024-09-27 13:41", "howMany": 1, "lat": 41.525999, "lng": -70.669777, "obsValid": true, "obsReviewed": false, "locationPrivate": false, "subId": "S196645850"}, {"speciesCode": "roster", "comName": "Roseate Tern", "sciName": "Sterna dougallii", "locId": "L36884610", "locName": "Ellis Landing", "obsDt": "2024-09-27 11:04", "howMany": 1, "lat": 41.77534, "lng": -70.054786, "obsValid": true, "obsReviewed": false, "locationPrivate": true, "subId": "S196631911"}, {"speciesCode": "ycnher", "comName": "Yellow-crowned Night Heron", "sciName": "Nyctanassa violacea", "locId": "L207462", "locName": "Wellfleet Bay Wildlife Sanctuary (Mass Audubon)", "obsDt": "2024-09-27 10:55", "howMany": 1, "lat": 41.8825315, "lng": -69.995712, "obsValid": true, "obsReviewed": false, "locationPrivate": false, "subId": "S196637212"}, {"speciesCode": "lotduc", "comName": "Long-tailed Duck", "sciName": "Clangula hyemalis", "locId": "L36920901", "locName": "US (42.322, -70.025) On Cruise Ship", "obsDt": "2024-09-27 10:32", "howMany": 1, "lat": 42.3218872, "lng": -70.0247136, "obsValid": true, "obsReviewed": false, "locationPrivate": true, "subId": "S196793963"}, {"speciesCode": "solsan", "comName": "Solitary Sandpiper", "sciName": "Tringa solitaria", "locId": "L1240934", "locName": "Cape Cod National Seashore--Salt Pond Visitors Center", "obsDt": "2024-09-27 10:02", "howMany": 1, "lat": 41.837154, "lng": -69.9726588, "obsValid": true, "obsReviewed": false, "locationPrivate": false, "subId": "S196633951"}, {"speciesCode": "killde", "comName": "Killdeer", "sciName": "Charadrius vociferus", "locId": "L1240934", "locName": "Cape Cod National Seashore--Salt Pond Visitors Center", "obsDt": "2024-09-27 10:02", "howMany": 1, "lat": 41.837154, "lng": -69.9726588, "obsValid": true, "obsReviewed": false, "locationPrivate": false, "subId": "S196633951"}, {"speciesCode": "dickci", "comName": "Dickcissel", "sciName": "Spiza americana", "locId": "L4292856", "locName": "Cape Cod Organic Farm", "obsDt": "2024-09-27 09:45", "howMany": 1, "lat": 41.6979064, "lng": -70.2887732, "obsValid": true, "obsReviewed": false, "locationPrivate": false, "subId": "S196644336"}, {"speciesCode": "babwar", "comName": "Bay-breasted Warbler", "sciName": "Setophaga castanea", "locId": "L3642110", "locName": "Santuit Pond", "obsDt": "2024-09-27 09:27", "howMany": 1, "lat": 41.6552018, "lng": -70.4597425, "obsValid": true, "obsReviewed": false, "locationPrivate": false, "subId": "S196646700"}, {"speciesCode": "lcspet", "comName": "Leach's Storm-Petrel", "sciName": "Hydrobates leucorhous", "locId": "L36920846", "locName": "On Cruise Ship, near Yarmouth  41.6228052, -69.5214282", "obsDt": "2024-09-27 07:56", "howMany": 1, "lat": 41.6228052, "lng": -69.5214282, "obsValid": true, "obsReviewed": false, "locationPrivate": true, "subId": "S196793706"}, {"speciesCode": "mouwar", "comName": "Mourning Warbler", "sciName": "Geothlypis philadelphia", "locId": "L716000", "locName": "New Seabury Country Club - Mashpee (PRIVATE)", "obsDt": "2024-09-27 06:50", "howMany": 1, "lat": 41.5599527, "lng": -70.4813182, "obsValid": true, "obsReviewed": false, "locationPrivate": true, "subId": "S196645725"}, {"speciesCode": "prowar", "comName": "Prothonotary Warbler", "sciName": "Protonotaria citrea", "locId": "L716000", "locName": "New Seabury Country Club - Mashpee (PRIVATE)", "obsDt": "2024-09-27 06:50", "howMany": 1, "lat": 41.5599527, "lng": -70.4813182, "obsValid": true, "obsReviewed": true, "locationPrivate": true, "subId": "S196645725"}, {"speciesCode": "warvir", "comName": "Warbling Vireo", "sciName": "Vireo gilvus", "locId": "L207462", "locName": "Wellfleet Bay Wildlife Sanctuary (Mass Audubon)", "obsDt": "2024-09-27 06:31", "howMany": 1, "lat": 41.8825315, "lng": -69.995712, "obsValid": true, "obsReviewed": false, "locationPrivate": false, "subId": "S196622475"}, {"speciesCode": "norwat", "comName": "Northern Waterthrush", "sciName": "Parkesia noveboracensis", "locId": "L207462", "locName": "Wellfleet Bay Wildlife Sanctuary (Mass Audubon)", "obsDt": "2024-09-26 15:07", "howMany": 1, "lat": 41.8825315, "lng": -69.995712, "obsValid": true, "obsReviewed": false, "locationPrivate": false, "subId": "S196566294"}, {"speciesCode": "willet1", "comName": "Willet", "sciName": "Tringa semipalmata", "locId": "L731072", "locName": "Buck's Creek", "obsDt": "2024-09-26 14:43", "howMany": 1, "lat": 41.673952, "lng": -70.0011545, "obsValid": true, "obsReviewed": false, "locationPrivate": false, "subId": "S196618612"}, {"speciesCode": "bkbwar", "comName": "Blackburnian Warbler", "sciName": "Setophaga fusca", "locId": "L15533658", "locName": "Barnstable Land Trust -- Andrews Property and Coombs Bogs", "obsDt": "2024-09-26 13:25", "howMany": 1, "lat": 41.659417, "lng": -70.357618, "obsValid": true, "obsReviewed": false, "locationPrivate": true, "subId": "S196553054"}, {"speciesCode": "amgplo", "comName": "American Golden-Plover", "sciName": "Pluvialis dominica", "locId": "L364733", "locName": "Race Point", "obsDt": "2024-09-26 08:16", "howMany": 1, "lat": 42.0691855, "lng": -70.2381706, "obsValid": true, "obsReviewed": false, "locationPrivate": false, "subId": "S196544731"}, {"speciesCode": "barswa", "comName": "Barn Swallow", "sciName": "Hirundo rustica", "locId": "L207462", "locName": "Wellfleet Bay Wildlife Sanctuary (Mass Audubon)", "obsDt": "2024-09-26 08:00", "howMany": 1, "lat": 41.8825315, "lng": -69.995712, "obsValid": true, "obsReviewed": false, "locationPrivate": false, "subId": "S196527443"}, {"speciesCode": "razorb", "comName": "Razorbill", "sciName": "Alca torda", "locId": "L36310777", "locName": "Bound Brook Island Beach", "obsDt": "2024-09-26 06:55", "howMany": 1, "lat": 41.951224, "lng": -70.07651, "obsValid": true, "obsReviewed": true, "locationPrivate": true, "subId": "S196518304"}, {"speciesCode": "chswar", "comName": "Chestnut-sided Warbler", "sciName": "Setophaga pensylvanica", "locId": "L3642110", "locName": "Santuit Pond", "obsDt": "2024-09-25 14:37", "howMany": 1, "lat": 41.6552018, "lng": -70.4597425, "obsValid": true, "obsReviewed": false, "locationPrivate": false, "subId": "S196520834"}, {"speciesCode": "whrsan", "comName": "White-rumped Sandpiper", "sciName": "Calidris fuscicollis", "locId": "L364733", "locName": "Race Point", "obsDt": "2024-09-25 08:04", "howMany": 1, "lat": 42.0691855, "lng": -70.2381706, "obsValid": true, "obsReviewed": false, "locationPrivate": false, "subId": "S196451979"}, {"speciesCode": "wlswar", "comName": "Wilson's Warbler", "sciName": "Cardellina pusilla", "locId": "L3347186", "locName": "Cummaquid yard", "obsDt": "2024-09-25 07:35", "howMany": 1, "lat": 41.6995686, "lng": -70.2629972, "obsValid": true, "obsReviewed": false, "locationPrivate": true, "subId": "S196463175"}, {"speciesCode": "brwhaw", "comName": "Broad-winged Hawk", "sciName": "Buteo platypterus", "locId": "L207462", "locName": "Wellfleet Bay Wildlife Sanctuary (Mass Audubon)", "obsDt": "2024-09-24 11:31", "howMany": 1, "lat": 41.8825315, "lng": -69.995712, "obsValid": true, "obsReviewed": false, "locationPrivate": false, "subId": "S196380134"}, {"speciesCode": "stisan", "comName": "Stilt Sandpiper", "sciName": "Calidris himantopus", "locId": "L36835519", "locName": "198 Mill Creek Rd South Chatham", "obsDt": "2024-09-24 10:40", "howMany": 1, "lat": 41.6753866, "lng": -70.0200333, "obsValid": true, "obsReviewed": false, "locationPrivate": true, "subId": "S196385123"}, {"speciesCode": "clcspa", "comName": "Clay-colored Sparrow", "sciName": "Spizella pallida", "locId": "L27196433", "locName": "Putnam Farm Conservation Area", "obsDt": "2024-09-24 07:30", "howMany": 1, "lat": 41.8003074, "lng": -69.9881977, "obsValid": true, "obsReviewed": false, "locationPrivate": false, "subId": "S196356614"}, {"speciesCode": "wilsni1", "comName": "Wilson's Snipe", "sciName": "Gallinago delicata", "locId": "L207462", "locName": "Wellfleet Bay Wildlife Sanctuary (Mass Audubon)", "obsDt": "2024-09-23 13:37", "howMany": 1, "lat": 41.8825315, "lng": -69.995712, "obsValid": true, "obsReviewed": false, "locationPrivate": false, "subId": "S196251277"}, {"speciesCode": "wispet", "comName": "Wilson's Storm-Petrel", "sciName": "Oceanites oceanicus", "locId": "L489376", "locName": "Race Point Beach, Provincetown", "obsDt": "2024-09-22 06:45", "howMany": 1, "lat": 42.0782217, "lng": -70.2263891, "obsValid": true, "obsReviewed": false, "locationPrivate": false, "subId": "S196176124"}, {"speciesCode": "atlpuf", "comName": "Atlantic Puffin", "sciName": "Fratercula arctica", "locId": "L489376", "locName": "Race Point Beach, Provincetown", "obsDt": "2024-09-22 06:45", "howMany": 1, "lat": 42.0782217, "lng": -70.2263891, "obsValid": true, "obsReviewed": true, "locationPrivate": false, "subId": "S196176124"}, {"speciesCode": "lotjae", "comName": "Long-tailed Jaeger", "sciName": "Stercorarius longicaudus", "locId": "L36310777", "locName": "Bound Brook Island Beach", "obsDt": "2024-09-22 06:38", "howMany": 1, "lat": 41.951224, "lng": -70.07651, "obsValid": true, "obsReviewed": true, "locationPrivate": true, "subId": "S196064760"}], "totalObsCount": 766}, "Berkshire": {"records": [{"speciesCode": "cedwax", "comName": "Cedar Waxwing", "sciName": "Bombycilla cedrorum", "locId": "L9333802", "locName": "Thomas and Palmer Brook, Great Barrington", "obsDt": "2024-09-28 17:11", "howMany": 15, "lat": 42.195998, "lng": -73.336511, "obsValid": true, "obsReviewed": false, "locationPrivate": false, "subId": "S196808490"}, {"speciesCode": "rewbla", "comName": "Red-winged Blackbird", "sciName": "Agelaius phoeniceus", "locId": "L207453", "locName": "Pleasant Valley Wildlife Sanctuary (Mass Audubon)", "obsDt": "2024-09-28 16:05", "howMany": 15, "lat": 42.39371, "lng": -73.29325, "obsValid": true, "obsReviewed": false, "locationPrivate": false, "subId": "S196805673"}, {"speciesCode": "blujay", "comName": "Blue Jay", "sciName": "Cyanocitta cristata", "locId": "L31775947", "locName": "Home", "obsDt": "2024-09-28 16:17", "howMany": 13, "lat": 42.686511, "lng": -73.114049, "obsValid": true, "obsReviewed": false, "locationPrivate": true, "subId": "S196799009"}, {"speciesCode": "tuftit", "comName": "Tufted Titmouse", "sciName": "Baeolophus bicolor", "locId": "L9333802", "locName": "Thomas and Palmer Brook, Great Barrington", "obsDt": "2024-09-28 17:11", "howMany": 10, "lat": 42.195998, "lng": -73.336511, "obsValid": true, "obsReviewed": false, "locationPrivate": false, "subId": "S196808490"}, {"speciesCode": "moudov", "comName": "Mourning Dove", "sciName": "Zenaida macroura", "locId": "L31775947", "locName": "Home", "obsDt": "2024-09-28 16:17", "howMany": 7, "lat": 42.686511, "lng": -73.114049, "obsValid": true, "obsReviewed": false, "locationPrivate": true, "subId": "S196799009"}, {"speciesCode": "cangoo", "comName": "Canada Goose", "sciName": "Branta canadensis", "locId": "L7946997", "locName": "Bullard Woods/Gould Meadows, Stockbridge", "obsDt": "2024-09-28 11:19", "howMany": 6, "lat": 42.3459623, "lng": -73.3118784, "obsValid": true, "obsReviewed": false, "locationPrivate": false, "subId": "S196760922"}, {"speciesCode": "commer", "comName": "Common Merganser", "sciName": "Mergus merganser", "locId": "L10639759", "locName": "Housatonic River--Division St.", "obsDt": "2024-09-28 10:20", "howMany": 6, "lat": 42.2317567, "lng": -73.3548907, "obsValid": true, "obsReviewed": false, "locationPrivate": false, "subId": "S196791431"}, {"speciesCode": "savspa", "comName": "Savannah Sparrow", "sciName": "Passerculus sandwichensis", "locId": "L293820", "locName": "Linear Park and Spruces Park", "obsDt": "2024-09-28 09:31", "howMany": 6, "lat": 42.7062555, "lng": -73.1844945, "obsValid": true, "obsReviewed": false, "locationPrivate": false, "subId": "S196744159"}, {"speciesCode": "fiespa", "comName": "Field Sparrow", "sciName": "Spizella pusilla", "locId": "L789081", "locName": "Howden Farm (owner permission required)", "obsDt": "2024-09-27 13:35", "howMany": 6, "lat": 42.0715164, "lng": -73.3476877, "obsValid": true, "obsReviewed": false, "locationPrivate": false, "subId": "S196703639"}, {"speciesCode": "sonspa", "comName": "Song Sparrow", "sciName": "Melospiza melodia", "locId": "L4597774", "locName": "Lime Kiln Farm Wildlife Sanctuary, Sheffield", "obsDt": "2024-09-28 18:09", "howMany": 5, "lat": 42.082738, "lng": -73.36265, "obsValid": true, "obsReviewed": false, "locationPrivate": false, "subId": "S196808506"}, {"speciesCode": "amegfi", "comName": "American Goldfinch", "sciName": "Spinus tristis", "locId": "L9333802", "locName": "Thomas and Palmer Brook, Great Barrington", "obsDt": "2024-09-28 17:11", "howMany": 5, "lat": 42.195998, "lng": -73.336511, "obsValid": true, "obsReviewed": false, "locationPrivate": false, "subId": "S196808490"}, {"speciesCode": "norcar", "comName": "Northern Cardinal", "sciName": "Cardinalis cardinalis", "locId": "L31775947", "locName": "Home", "obsDt": "2024-09-28 16:17", "howMany": 5, "lat": 42.686511, "lng": -73.114049, "obsValid": true, "obsReviewed": false, "locationPrivate": true, "subId": "S196799009"}, {"speciesCode": "comrav", "comName": "Common Raven", "sciName": "Corvus corax", "locId": "L9333802", "locName": "Thomas and Palmer Brook, Great Barrington", "obsDt": "2024-09-28 17:11", "howMany": 4, "lat": 42.195998, "lng": -73.336511, "obsValid": true, "obsReviewed": false, "locationPrivate": false, "subId": "S196808490"}, {"speciesCode": "turvul", "comName": "Turkey Vulture", "sciName": "Cathartes aura", "locId": "L36923682", "locName": "9\u201389 Burnett Rd, Savoy US-MA 42.61835, -73.05439", "obsDt": "2024-09-28 13:38", "howMany": 4, "lat": 42.61835, "lng": -73.054389, "obsValid": true, "obsReviewed": false, "locationPrivate": true, "subId": "S196806125"}, {"speciesCode": "eursta", "comName": "European Starling", "sciName": "Sturnus vulgaris", "locId": "L36912009", "locName": "2226 Main Street, Becket, Massachusetts, US (42.31, -73.082)", "obsDt": "2024-09-28 11:15", "howMany": 4, "lat": 42.3101368, "lng": -73.0822624, "obsValid": true, "obsReviewed": false, "locationPrivate": true, "subId": "S196754362", "exoticCategory": "N"}, {"speciesCode": "houspa", "comName": "House Sparrow", "sciName": "Passer domesticus", "locId": "L6172525", "locName": "21 Santa Maria Street", "obsDt": "2024-09-28 05:45", "howMany": 4, "lat": 42.4410526, "lng": -73.3005224, "obsValid": true, "obsReviewed": false, "locationPrivate": true, "subId": "S196747918", "exoticCategory": "N"}, {"speciesCode": "doccor", "comName": "Double-crested Cormorant", "sciName": "Nannopterum auritum", "locId": "L1171628", "locName": "Cheshire Reservoir--Nobody's Rd. Causeway", "obsDt": "2024-09-27 09:01", "howMany": 4, "lat": 42.5217342, "lng": -73.196875, "obsValid": true, "obsReviewed": false, "locationPrivate": false, "subId": "S196619270"}, {"speciesCode": "whcspa", "comName": "White-crowned Sparrow", "sciName": "Zonotrichia leucophrys", "locId": "L207427", "locName": "Canoe Meadows Wildlife Sanctuary (Mass Audubon)", "obsDt": "2024-09-24 09:30", "howMany": 4, "lat": 42.4303016, "lng": -73.2367135, "obsValid": true, "obsReviewed": false, "locationPrivate": false, "subId": "S196398586"}, {"speciesCode": "normoc", "comName": "Northern Mockingbird", "sciName": "Mimus polyglottos", "locId": "L789081", "locName": "Howden Farm (owner permission required)", "obsDt": "2024-09-23 14:25", "howMany": 4, "lat": 42.0715164, "lng": -73.3476877, "obsValid": true, "obsReviewed": false, "locationPrivate": false, "subId": "S196260296"}, {"speciesCode": "wooduc", "comName": "Wood Duck", "sciName": "Aix sponsa", "locId": "L207453", "locName": "Pleasant Valley Wildlife Sanctuary (Mass Audubon)", "obsDt": "2024-09-28 16:05", "howMany": 3, "lat": 42.39371, "lng": -73.29325, "obsValid": true, "obsReviewed": false, "locationPrivate": false, "subId": "S196805673"}, {"speciesCode": "indbun", "comName": "Indigo Bunting", "sciName": "Passerina cyanea", "locId": "L10639759", "locName": "Housatonic River--Division St.", "obsDt": "2024-09-28 10:20", "howMany": 3, "lat": 42.2317567, "lng": -73.3548907, "obsValid": true, "obsReviewed": false, "locationPrivate": false, "subId": "S196791431"}, {"speciesCode": "fiscro", "comName": "Fish Crow", "sciName": "Corvus ossifragus", "locId": "L27178767", "locName": "Berkshire Crossing", "obsDt": "2024-09-28 09:45", "howMany": 3, "lat": 42.4674844, "lng": -73.1963307, "obsValid": true, "obsReviewed": false, "locationPrivate": true, "subId": "S196744558"}, {"speciesCode": "ribgul", "comName": "Ring-billed Gull", "sciName": "Larus delawarensis", "locId": "L279496", "locName": "Onota Lake--Dan Casey Memorial Dr.", "obsDt": "2024-09-27 09:59", "howMany": 3, "lat": 42.4845242, "lng": -73.2784317, "obsValid": true, "obsReviewed": false, "locationPrivate": false, "subId": "S196621668"}, {"speciesCode": "whtspa", "comName": "White-throated Sparrow", "sciName": "Zonotrichia albicollis", "locId": "L9333802", "locName": "Thomas and Palmer Brook, Great Barrington", "obsDt": "2024-09-28 17:11", "howMany": 2, "lat": 42.195998, "lng": -73.336511, "obsValid": true, "obsReviewed": false, "locationPrivate": false, "subId": "S196808490"}, {"speciesCode": "bkcchi", "comName": "Black-capped Chickadee", "sciName": "Poecile atricapillus", "locId": "L9333802", "locName": "Thomas and Palmer Brook, Great Barrington", "obsDt": "2024-09-28 17:11", "howMany": 2, "lat": 42.195998, "lng": -73.336511, "obsValid": true, "obsReviewed": false, "locationPrivate": false, "subId": "S196808490"}, {"speciesCode": "grycat", "comName": "Gray Catbird", "sciName": "Dumetella carolinensis", "locId": "L9333802", "locName": "Thomas and Palmer Brook, Great Barrington", "obsDt": "2024-09-28 17:11", "howMany": 2, "lat": 42.195998, "lng": -73.336511, "obsValid": true, "obsReviewed": false, "locationPrivate": false, "subId": "S196808490"}, {"speciesCode": "easpho", "comName": "Eastern Phoebe", "sciName": "Sayornis phoebe", "locId": "L9333802", "locName": "Thomas and Palmer Brook, Great Barrington", "obsDt": "2024-09-28 17:11", "howMany": 2, "lat": 42.195998, "lng": -73.336511, "obsValid": true, "obsReviewed": false, "locationPrivate": false, "subId": "S196808490"}, {"speciesCode": "norfli", "comName": "Northern Flicker", "sciName": "Colaptes auratus", "locId": "L9333802", "locName": "Thomas and Palmer Brook, Great Barrington", "obsDt": "2024-09-28 17:11", "howMany": 2, "lat": 42.195998, "lng": -73.336511, "obsValid": true, "obsReviewed": false, "locationPrivate": false, "subId": "S196808490"}, {"speciesCode": "carwre", "comName": "Carolina Wren", "sciName": "Thryothorus ludovicianus", "locId": "L31775947", "locName": "Home", "obsDt": "2024-09-28 16:17", "howMany": 2, "lat": 42.686511, "lng": -73.114049, "obsValid": true, "obsReviewed": false, "locationPrivate": true, "subId": "S196799009"}, {"speciesCode": "daejun", "comName": "Dark-eyed Junco", "sciName": "Junco hyemalis", "locId": "L36923682", "locName": "9\u201389 Burnett Rd, Savoy US-MA 42.61835, -73.05439", "obsDt": "2024-09-28 13:38", "howMany": 2, "lat": 42.61835, "lng": -73.054389, "obsValid": true, "obsReviewed": false, "locationPrivate": true, "subId": "S196806125"}, {"speciesCode": "easblu", "comName": "Eastern Bluebird", "sciName": "Sialia sialis", "locId": "L36650614", "locName": "453 Main Street, Becket, Massachusetts, US (42.275, -73.056)", "obsDt": "2024-09-28 10:34", "howMany": 2, "lat": 42.2745408, "lng": -73.0562542, "obsValid": true, "obsReviewed": false, "locationPrivate": true, "subId": "S196746217"}, {"speciesCode": "bkpwar", "comName": "Blackpoll Warbler", "sciName": "Setophaga striata", "locId": "L36906429", "locName": "338 Johnson Road, Becket, Massachusetts, US (42.246, -73.084)", "obsDt": "2024-09-28 08:50", "howMany": 2, "lat": 42.2455398, "lng": -73.0837539, "obsValid": true, "obsReviewed": false, "locationPrivate": true, "subId": "S196727115"}, {"speciesCode": "mutswa", "comName": "Mute Swan", "sciName": "Cygnus olor", "locId": "L9008865", "locName": "Parsons Marsh, Lenox", "obsDt": "2024-09-28 07:01", "howMany": 2, "lat": 42.3644104, "lng": -73.3050299, "obsValid": true, "obsReviewed": false, "locationPrivate": false, "subId": "S196751106", "exoticCategory": "N"}, {"speciesCode": "ambduc", "comName": "American Black Duck", "sciName": "Anas rubripes", "locId": "L9008865", "locName": "Parsons Marsh, Lenox", "obsDt": "2024-09-28 07:01", "howMany": 2, "lat": 42.3644104, "lng": -73.3050299, "obsValid": true, "obsReviewed": false, "locationPrivate": false, "subId": "S196751106"}, {"speciesCode": "killde", "comName": "Killdeer", "sciName": "Charadrius vociferus", "locId": "L6172525", "locName": "21 Santa Maria Street", "obsDt": "2024-09-28 05:45", "howMany": 2, "lat": 42.4410526, "lng": -73.3005224, "obsValid": true, "obsReviewed": false, "locationPrivate": true, "subId": "S196747918"}, {"speciesCode": "hergul", "comName": "Herring Gull", "sciName": "Larus argentatus", "locId": "L802441", "locName": "Onota Lake--Burbank Park Beach", "obsDt": "2024-09-26 14:57", "howMany": 2, "lat": 42.4711364, "lng": -73.2759293, "obsValid": true, "obsReviewed": false, "locationPrivate": false, "subId": "S196600107"}, {"speciesCode": "gnwtea", "comName": "Green-winged Teal", "sciName": "Anas crecca", "locId": "L207427", "locName": "Canoe Meadows Wildlife Sanctuary (Mass Audubon)", "obsDt": "2024-09-25 11:36", "howMany": 2, "lat": 42.4303016, "lng": -73.2367135, "obsValid": true, "obsReviewed": false, "locationPrivate": false, "subId": "S196445636"}, {"speciesCode": "easmea", "comName": "Eastern Meadowlark", "sciName": "Sturnella magna", "locId": "L802434", "locName": "Pittsfield Airport", "obsDt": "2024-09-25 08:14", "howMany": 2, "lat": 42.4254523, "lng": -73.2924986, "obsValid": true, "obsReviewed": false, "locationPrivate": false, "subId": "S196421699"}, {"speciesCode": "bawwar", "comName": "Black-and-white Warbler", "sciName": "Mniotilta varia", "locId": "L1066655", "locName": "Springside Park, Pittsfield", "obsDt": "2024-09-25 08:00", "howMany": 2, "lat": 42.4670478, "lng": -73.2382321, "obsValid": true, "obsReviewed": false, "locationPrivate": false, "subId": "S196435357"}, {"speciesCode": "scatan", "comName": "Scarlet Tanager", "sciName": "Piranga olivacea", "locId": "L31775947", "locName": "Home", "obsDt": "2024-09-23 14:09", "howMany": 2, "lat": 42.686511, "lng": -73.114049, "obsValid": true, "obsReviewed": false, "locationPrivate": true, "subId": "S196247166"}, {"speciesCode": "winwre3", "comName": "Winter Wren", "sciName": "Troglodytes hiemalis", "locId": "L36779540", "locName": "151 Whitcomb Hill Road, Florida, Massachusetts, US (42.669, -73.002)", "obsDt": "2024-09-22 09:05", "howMany": 2, "lat": 42.6687339, "lng": -73.0019496, "obsValid": true, "obsReviewed": false, "locationPrivate": true, "subId": "S196101737"}, {"speciesCode": "yerwar", "comName": "Yellow-rumped Warbler", "sciName": "Setophaga coronata", "locId": "L4597774", "locName": "Lime Kiln Farm Wildlife Sanctuary, Sheffield", "obsDt": "2024-09-28 18:09", "howMany": 1, "lat": 42.082738, "lng": -73.36265, "obsValid": true, "obsReviewed": false, "locationPrivate": false, "subId": "S196808506"}, {"speciesCode": "rethaw", "comName": "Red-tailed Hawk", "sciName": "Buteo jamaicensis", "locId": "L4597774", "locName": "Lime Kiln Farm Wildlife Sanctuary, Sheffield", "obsDt": "2024-09-28 18:09", "howMany": 1, "lat": 42.082738, "lng": -73.36265, "obsValid": true, "obsReviewed": false, "locationPrivate": false, "subId": "S196808506"}, {"speciesCode": "whbnut", "comName": "White-breasted Nuthatch", "sciName": "Sitta carolinensis", "locId": "L9333802", "locName": "Thomas and Palmer Brook, Great Barrington", "obsDt": "2024-09-28 17:11", "howMany": 1, "lat": 42.195998, "lng": -73.336511, "obsValid": true, "obsReviewed": false, "locationPrivate": false, "subId": "S196808490"}, {"speciesCode": "comgra", "comName": "Common Grackle", "sciName": "Quiscalus quiscula", "locId": "L9333802", "locName": "Thomas and Palmer Brook, Great Barrington", "obsDt": "2024-09-28 17:11", "howMany": 1, "lat": 42.195998, "lng": -73.336511, "obsValid": true, "obsReviewed": false, "locationPrivate": false, "subId": "S196808490"}, {"speciesCode": "houfin", "comName": "House Finch", "sciName": "Haemorhous mexicanus", "locId": "L9333802", "locName": "Thomas and Palmer Brook, Great Barrington", "obsDt": "2024-09-28 17:11", "howMany": 1, "lat": 42.195998, "lng": -73.336511, "obsValid": true, "obsReviewed": false, "locationPrivate": false, "subId": "S196808490", "exoticCategory": "N"}, {"speciesCode": "eastow", "comName": "Eastern Towhee", "sciName": "Pipilo erythrophthalmus", "locId": "L9333802", "locName": "Thomas and Palmer Brook, Great Barrington", "obsDt": "2024-09-28 17:11", "howMany": 1, "lat": 42.195998, "lng": -73.336511, "obsValid": true, "obsReviewed": false, "locationPrivate": false, "subId": "S196808490"}, {"speciesCode": "rebwoo", "comName": "Red-bellied Woodpecker", "sciName": "Melanerpes carolinus", "locId": "L9333802", "locName": "Thomas and Palmer Brook, Great Barrington", "obsDt": "2024-09-28 17:11", "howMany": 1, "lat": 42.195998, "lng": -73.336511, "obsValid": true, "obsReviewed": false, "locationPrivate": false, "subId": "S196808490"}, {"speciesCode": "wiltur", "comName": "Wild Turkey", "sciName": "Meleagris gallopavo", "locId": "L31775947", "locName": "Home", "obsDt": "2024-09-28 16:17", "howMany": 1, "lat": 42.686511, "lng": -73.114049, "obsValid": true, "obsReviewed": false, "locationPrivate": true, "subId": "S196799009"}, {"speciesCode": "brnthr", "comName": "Brown Thrasher", "sciName": "Toxostoma rufum", "locId": "L31775947", "locName": "Home", "obsDt": "2024-09-28 16:17", "howMany": 1, "lat": 42.686511, "lng": -73.114049, "obsValid": true, "obsReviewed": false, "locationPrivate": true, "subId": "S196799009"}, {"speciesCode": "haiwoo", "comName": "Hairy Woodpecker", "sciName": "Dryobates villosus", "locId": "L31775947", "locName": "Home", "obsDt": "2024-09-28 16:17", "howMany": 1, "lat": 42.686511, "lng": -73.114049, "obsValid": true, "obsReviewed": false, "locationPrivate": true, "subId": "S196799009"}, {"speciesCode": "amerob", "comName": "American Robin", "sciName": "Turdus migratorius", "locId": "L207453", "locName": "Pleasant Valley Wildlife Sanctuary (Mass Audubon)", "obsDt": "2024-09-28 16:05", "howMany": 1, "lat": 42.39371, "lng": -73.29325, "obsValid": true, "obsReviewed": false, "locationPrivate": false, "subId": "S196805673"}, {"speciesCode": "dowwoo", "comName": "Downy Woodpecker", "sciName": "Dryobates pubescens", "locId": "L207453", "locName": "Pleasant Valley Wildlife Sanctuary (Mass Audubon)", "obsDt": "2024-09-28 16:05", "howMany": 1, "lat": 42.39371, "lng": -73.29325, "obsValid": true, "obsReviewed": false, "locationPrivate": false, "subId": "S196805673"}, {"speciesCode": "gockin", "comName": "Golden-crowned Kinglet", "sciName": "Regulus satrapa", "locId": "L207453", "locName": "Pleasant Valley Wildlife Sanctuary (Mass Audubon)", "obsDt": "2024-09-28 16:05", "howMany": 1, "lat": 42.39371, "lng": -73.29325, "obsValid": true, "obsReviewed": false, "locationPrivate": false, "subId": "S196805673"}, {"speciesCode": "swaspa", "comName": "Swamp Sparrow", "sciName": "Melospiza georgiana", "locId": "L207453", "locName": "Pleasant Valley Wildlife Sanctuary (Mass Audubon)", "obsDt": "2024-09-28 16:05", "howMany": 1, "lat": 42.39371, "lng": -73.29325, "obsValid": true, "obsReviewed": false, "locationPrivate": false, "subId": "S196805673"}, {"speciesCode": "chispa", "comName": "Chipping Sparrow", "sciName": "Spizella passerina", "locId": "L36923682", "locName": "9\u201389 Burnett Rd, Savoy US-MA 42.61835, -73.05439", "obsDt": "2024-09-28 13:38", "howMany": 1, "lat": 42.61835, "lng": -73.054389, "obsValid": true, "obsReviewed": false, "locationPrivate": true, "subId": "S196806125"}, {"speciesCode": "buhvir", "comName": "Blue-headed Vireo", "sciName": "Vireo solitarius", "locId": "L36923682", "locName": "9\u201389 Burnett Rd, Savoy US-MA 42.61835, -73.05439", "obsDt": "2024-09-28 13:38", "howMany": 1, "lat": 42.61835, "lng": -73.054389, "obsValid": true, "obsReviewed": false, "locationPrivate": true, "subId": "S196806125"}, {"speciesCode": "baleag", "comName": "Bald Eagle", "sciName": "Haliaeetus leucocephalus", "locId": "L36923682", "locName": "9\u201389 Burnett Rd, Savoy US-MA 42.61835, -73.05439", "obsDt": "2024-09-28 13:38", "howMany": 1, "lat": 42.61835, "lng": -73.054389, "obsValid": true, "obsReviewed": false, "locationPrivate": true, "subId": "S196806125"}, {"speciesCode": "amecro", "comName": "American Crow", "sciName": "Corvus brachyrhynchos", "locId": "L36923682", "locName": "9\u201389 Burnett Rd, Savoy US-MA 42.61835, -73.05439", "obsDt": "2024-09-28 13:38", "howMany": 1, "lat": 42.61835, "lng": -73.054389, "obsValid": true, "obsReviewed": false, "locationPrivate": true, "subId": "S196806125"}, {"speciesCode": "merlin", "comName": "Merlin", "sciName": "Falco columbarius", "locId": "L616955", "locName": "Bartholomew's Cobble, Ashley Falls", "obsDt": "2024-09-28 13:02", "howMany": 1, "lat": 42.0575, "lng": -73.3508, "obsValid": true, "obsReviewed": false, "locationPrivate": false, "subId": "S196775397"}, {"speciesCode": "comloo", "comName": "Common Loon", "sciName": "Gavia immer", "locId": "L36913999", "locName": "563 Yokum Pond Road, Becket, Massachusetts, US (42.307, -73.124)", "obsDt": "2024-09-28 11:47", "howMany": 1, "lat": 42.3071215, "lng": -73.1244902, "obsValid": true, "obsReviewed": false, "locationPrivate": true, "subId": "S196763392"}, {"speciesCode": "reshaw", "comName": "Red-shouldered Hawk", "sciName": "Buteo lineatus", "locId": "L7946997", "locName": "Bullard Woods/Gould Meadows, Stockbridge", "obsDt": "2024-09-28 11:19", "howMany": 1, "lat": 42.3459623, "lng": -73.3118784, "obsValid": true, "obsReviewed": false, "locationPrivate": false, "subId": "S196760922"}, {"speciesCode": "palwar", "comName": "Palm Warbler", "sciName": "Setophaga palmarum", "locId": "L36912009", "locName": "2226 Main Street, Becket, Massachusetts, US (42.31, -73.082)", "obsDt": "2024-09-28 11:15", "howMany": 1, "lat": 42.3101368, "lng": -73.0822624, "obsValid": true, "obsReviewed": false, "locationPrivate": true, "subId": "S196754362"}, {"speciesCode": "magwar", "comName": "Magnolia Warbler", "sciName": "Setophaga magnolia", "locId": "L10639759", "locName": "Housatonic River--Division St.", "obsDt": "2024-09-28 10:20", "howMany": 1, "lat": 42.2317567, "lng": -73.3548907, "obsValid": true, "obsReviewed": false, "locationPrivate": false, "subId": "S196791431"}, {"speciesCode": "grbher3", "comName": "Great Blue Heron", "sciName": "Ardea herodias", "locId": "L10639759", "locName": "Housatonic River--Division St.", "obsDt": "2024-09-28 10:20", "howMany": 1, "lat": 42.2317567, "lng": -73.3548907, "obsValid": true, "obsReviewed": false, "locationPrivate": false, "subId": "S196791431"}, {"speciesCode": "ruckin", "comName": "Ruby-crowned Kinglet", "sciName": "Corthylio calendula", "locId": "L10639759", "locName": "Housatonic River--Division St.", "obsDt": "2024-09-28 10:20", "howMany": 1, "lat": 42.2317567, "lng": -73.3548907, "obsValid": true, "obsReviewed": false, "locationPrivate": false, "subId": "S196791431"}, {"speciesCode": "linspa", "comName": "Lincoln's Sparrow", "sciName": "Melospiza lincolnii", "locId": "L36909587", "locName": "650 Bonny Rigg Hill Road, Becket, Massachusetts, US (42.251, -73.039)", "obsDt": "2024-09-28 10:15", "howMany": 1, "lat": 42.2506875, "lng": -73.0385692, "obsValid": true, "obsReviewed": false, "locationPrivate": true, "subId": "S196743142"}, {"speciesCode": "comyel", "comName": "Common Yellowthroat", "sciName": "Geothlypis trichas", "locId": "L36909587", "locName": "650 Bonny Rigg Hill Road, Becket, Massachusetts, US (42.251, -73.039)", "obsDt": "2024-09-28 10:15", "howMany": 1, "lat": 42.2506875, "lng": -73.0385692, "obsValid": true, "obsReviewed": false, "locationPrivate": true, "subId": "S196743142"}, {"speciesCode": "belkin1", "comName": "Belted Kingfisher", "sciName": "Megaceryle alcyon", "locId": "L36909587", "locName": "650 Bonny Rigg Hill Road, Becket, Massachusetts, US (42.251, -73.039)", "obsDt": "2024-09-28 10:15", "howMany": 1, "lat": 42.2506875, "lng": -73.0385692, "obsValid": true, "obsReviewed": false, "locationPrivate": true, "subId": "S196743142"}, {"speciesCode": "purfin", "comName": "Purple Finch", "sciName": "Haemorhous purpureus", "locId": "L293820", "locName": "Linear Park and Spruces Park", "obsDt": "2024-09-28 09:31", "howMany": 1, "lat": 42.7062555, "lng": -73.1844945, "obsValid": true, "obsReviewed": false, "locationPrivate": false, "subId": "S196744159"}, {"speciesCode": "mallar3", "comName": "Mallard", "sciName": "Anas platyrhynchos", "locId": "L293820", "locName": "Linear Park and Spruces Park", "obsDt": "2024-09-28 09:31", "howMany": 1, "lat": 42.7062555, "lng": -73.1844945, "obsValid": true, "obsReviewed": false, "locationPrivate": false, "subId": "S196744159"}, {"speciesCode": "osprey", "comName": "Osprey", "sciName": "Pandion haliaetus", "locId": "L27335752", "locName": "443 Johnson Road, Washington, Massachusetts, US (42.237, -73.079)", "obsDt": "2024-09-28 09:09", "howMany": 1, "lat": 42.2370079, "lng": -73.0792325, "obsValid": true, "obsReviewed": false, "locationPrivate": true, "subId": "S196735599"}, {"speciesCode": "coohaw", "comName": "Cooper's Hawk", "sciName": "Accipiter cooperii", "locId": "L27335752", "locName": "443 Johnson Road, Washington, Massachusetts, US (42.237, -73.079)", "obsDt": "2024-09-28 09:09", "howMany": 1, "lat": 42.2370079, "lng": -73.0792325, "obsValid": true, "obsReviewed": false, "locationPrivate": true, "subId": "S196735599"}, {"speciesCode": "tenwar", "comName": "Tennessee Warbler", "sciName": "Leiothlypis peregrina", "locId": "L27335752", "locName": "443 Johnson Road, Washington, Massachusetts, US (42.237, -73.079)", "obsDt": "2024-09-28 09:09", "howMany": 1, "lat": 42.2370079, "lng": -73.0792325, "obsValid": true, "obsReviewed": false, "locationPrivate": true, "subId": "S196735599"}, {"speciesCode": "norpar", "comName": "Northern Parula", "sciName": "Setophaga americana", "locId": "L36906429", "locName": "338 Johnson Road, Becket, Massachusetts, US (42.246, -73.084)", "obsDt": "2024-09-28 08:50", "howMany": 1, "lat": 42.2455398, "lng": -73.0837539, "obsValid": true, "obsReviewed": false, "locationPrivate": true, "subId": "S196727115"}, {"speciesCode": "brncre", "comName": "Brown Creeper", "sciName": "Certhia americana", "locId": "L36906048", "locName": "118 Johnson Road, Becket, Massachusetts, US (42.254, -73.085)", "obsDt": "2024-09-28 08:42", "howMany": 1, "lat": 42.2543117, "lng": -73.0854001, "obsValid": true, "obsReviewed": false, "locationPrivate": true, "subId": "S196725054"}, {"speciesCode": "rebnut", "comName": "Red-breasted Nuthatch", "sciName": "Sitta canadensis", "locId": "L15118607", "locName": "Northwest Hill Rd., Williamstown", "obsDt": "2024-09-28 08:31", "howMany": 1, "lat": 42.7359434, "lng": -73.2400519, "obsValid": true, "obsReviewed": false, "locationPrivate": false, "subId": "S196743435"}, {"speciesCode": "shshaw", "comName": "Sharp-shinned Hawk", "sciName": "Accipiter striatus", "locId": "L4910828", "locName": "Housatonic Flats Reserve, Great Barrington", "obsDt": "2024-09-28 08:24", "howMany": 1, "lat": 42.2168619, "lng": -73.345955, "obsValid": true, "obsReviewed": false, "locationPrivate": false, "subId": "S196755240"}, {"speciesCode": "greegr", "comName": "Great Egret", "sciName": "Ardea alba", "locId": "L4910828", "locName": "Housatonic Flats Reserve, Great Barrington", "obsDt": "2024-09-28 08:24", "howMany": 1, "lat": 42.2168619, "lng": -73.345955, "obsValid": true, "obsReviewed": false, "locationPrivate": false, "subId": "S196755240"}, {"speciesCode": "yebsap", "comName": "Yellow-bellied Sapsucker", "sciName": "Sphyrapicus varius", "locId": "L4910828", "locName": "Housatonic Flats Reserve, Great Barrington", "obsDt": "2024-09-28 08:24", "howMany": 1, "lat": 42.2168619, "lng": -73.345955, "obsValid": true, "obsReviewed": false, "locationPrivate": false, "subId": "S196755240"}, {"speciesCode": "camwar", "comName": "Cape May Warbler", "sciName": "Setophaga tigrina", "locId": "L4910828", "locName": "Housatonic Flats Reserve, Great Barrington", "obsDt": "2024-09-28 08:24", "howMany": 1, "lat": 42.2168619, "lng": -73.345955, "obsValid": true, "obsReviewed": false, "locationPrivate": false, "subId": "S196755240"}, {"speciesCode": "rocpig", "comName": "Rock Pigeon", "sciName": "Columba livia", "locId": "L207427", "locName": "Canoe Meadows Wildlife Sanctuary (Mass Audubon)", "obsDt": "2024-09-28 08:14", "howMany": 1, "lat": 42.4303016, "lng": -73.2367135, "obsValid": true, "obsReviewed": false, "locationPrivate": false, "subId": "S196733020", "exoticCategory": "N"}, {"speciesCode": "houwre", "comName": "House Wren", "sciName": "Troglodytes aedon", "locId": "L30901811", "locName": "4099 Jacobs Ladder Road, Becket, Massachusetts, US (42.292, -73.159)", "obsDt": "2024-09-28 08:08", "howMany": 1, "lat": 42.2923217, "lng": -73.159395, "obsValid": true, "obsReviewed": false, "locationPrivate": true, "subId": "S196720255"}, {"speciesCode": "pilwoo", "comName": "Pileated Woodpecker", "sciName": "Dryocopus pileatus", "locId": "L4427695", "locName": "Ashuwillticook Rail Trail--Cheshire", "obsDt": "2024-09-28 08:04", "howMany": 1, "lat": 42.5708288, "lng": -73.1484425, "obsValid": true, "obsReviewed": false, "locationPrivate": false, "subId": "S196762761"}, {"speciesCode": "brwhaw", "comName": "Broad-winged Hawk", "sciName": "Buteo platypterus", "locId": "L4427695", "locName": "Ashuwillticook Rail Trail--Cheshire", "obsDt": "2024-09-28 08:04", "howMany": 1, "lat": 42.5708288, "lng": -73.1484425, "obsValid": true, "obsReviewed": false, "locationPrivate": false, "subId": "S196762761"}, {"speciesCode": "amekes", "comName": "American Kestrel", "sciName": "Falco sparverius", "locId": "L9008865", "locName": "Parsons Marsh, Lenox", "obsDt": "2024-09-28 07:01", "howMany": 1, "lat": 42.3644104, "lng": -73.3050299, "obsValid": true, "obsReviewed": false, "locationPrivate": false, "subId": "S196751106"}, {"speciesCode": "grhowl", "comName": "Great Horned Owl", "sciName": "Bubo virginianus", "locId": "L4505754", "locName": "Lake Mansfield and Lake Mansfield Park", "obsDt": "2024-09-28 06:25", "howMany": 1, "lat": 42.204187, "lng": -73.3673644, "obsValid": true, "obsReviewed": false, "locationPrivate": false, "subId": "S196709063"}, {"speciesCode": "brdowl", "comName": "Barred Owl", "sciName": "Strix varia", "locId": "L4505754", "locName": "Lake Mansfield and Lake Mansfield Park", "obsDt": "2024-09-28 06:25", "howMany": 1, "lat": 42.204187, "lng": -73.3673644, "obsValid": true, "obsReviewed": false, "locationPrivate": false, "subId": "S196709063"}, {"speciesCode": "amepip", "comName": "American Pipit", "sciName": "Anthus rubescens", "locId": "L6172525", "locName": "21 Santa Maria Street", "obsDt": "2024-09-28 05:45", "howMany": 1, "lat": 42.4410526, "lng": -73.3005224, "obsValid": true, "obsReviewed": false, "locationPrivate": true, "subId": "S196747918"}, {"speciesCode": "herthr", "comName": "Hermit Thrush", "sciName": "Catharus guttatus", "locId": "L6172525", "locName": "21 Santa Maria Street", "obsDt": "2024-09-28 05:45", "howMany": 1, "lat": 42.4410526, "lng": -73.3005224, "obsValid": true, "obsReviewed": false, "locationPrivate": true, "subId": "S196747918"}, {"speciesCode": "amered", "comName": "American Redstart", "sciName": "Setophaga ruticilla", "locId": "L207453", "locName": "Pleasant Valley Wildlife Sanctuary (Mass Audubon)", "obsDt": "2024-09-27 15:02", "howMany": 1, "lat": 42.39371, "lng": -73.29325, "obsValid": true, "obsReviewed": false, "locationPrivate": false, "subId": "S196684240"}, {"speciesCode": "blkvul", "comName": "Black Vulture", "sciName": "Coragyps atratus", "locId": "L787965", "locName": "Meadow St. and Hop Brook WMA, Lee", "obsDt": "2024-09-27 13:55", "howMany": 1, "lat": 42.271196, "lng": -73.2496905, "obsValid": true, "obsReviewed": false, "locationPrivate": false, "subId": "S196679972"}, {"speciesCode": "marwre", "comName": "Marsh Wren", "sciName": "Cistothorus palustris", "locId": "L729817", "locName": "Bean Hill Rd. Marsh, Stockbridge", "obsDt": "2024-09-27 10:31", "howMany": 1, "lat": 42.3293145, "lng": -73.2977772, "obsValid": true, "obsReviewed": false, "locationPrivate": false, "subId": "S196623613"}, {"speciesCode": "grnher", "comName": "Green Heron", "sciName": "Butorides virescens", "locId": "L3938922", "locName": "Cheshire Reservoir--South End", "obsDt": "2024-09-27 10:15", "howMany": 1, "lat": 42.509358, "lng": -73.198479, "obsValid": true, "obsReviewed": false, "locationPrivate": false, "subId": "S196623059"}, {"speciesCode": "naswar", "comName": "Nashville Warbler", "sciName": "Leiothlypis ruficapilla", "locId": "L10639759", "locName": "Housatonic River--Division St.", "obsDt": "2024-09-27 10:00", "howMany": 1, "lat": 42.2317567, "lng": -73.3548907, "obsValid": true, "obsReviewed": false, "locationPrivate": false, "subId": "S196671154"}, {"speciesCode": "pibgre", "comName": "Pied-billed Grebe", "sciName": "Podilymbus podiceps", "locId": "L279496", "locName": "Onota Lake--Dan Casey Memorial Dr.", "obsDt": "2024-09-27 09:59", "howMany": 1, "lat": 42.4845242, "lng": -73.2784317, "obsValid": true, "obsReviewed": false, "locationPrivate": false, "subId": "S196621668"}, {"speciesCode": "pinwar", "comName": "Pine Warbler", "sciName": "Setophaga pinus", "locId": "L613450", "locName": "Clarksburg SP", "obsDt": "2024-09-26 10:30", "howMany": 1, "lat": 42.7352874, "lng": -73.0772781, "obsValid": true, "obsReviewed": false, "locationPrivate": false, "subId": "S196537086"}, {"speciesCode": "robgro", "comName": "Rose-breasted Grosbeak", "sciName": "Pheucticus ludovicianus", "locId": "L293820", "locName": "Linear Park and Spruces Park", "obsDt": "2024-09-26 09:27", "howMany": 1, "lat": 42.7062555, "lng": -73.1844945, "obsValid": true, "obsReviewed": false, "locationPrivate": false, "subId": "S196527740"}, {"speciesCode": "reevir1", "comName": "Red-eyed Vireo", "sciName": "Vireo olivaceus", "locId": "L468972", "locName": "Mount Williams Reservoir, North Adams", "obsDt": "2024-09-26 08:35", "howMany": 1, "lat": 42.6862, "lng": -73.1524, "obsValid": true, "obsReviewed": false, "locationPrivate": false, "subId": "S196537038"}, {"speciesCode": "btnwar", "comName": "Black-throated Green Warbler", "sciName": "Setophaga virens", "locId": "L468972", "locName": "Mount Williams Reservoir, North Adams", "obsDt": "2024-09-26 08:35", "howMany": 1, "lat": 42.6862, "lng": -73.1524, "obsValid": true, "obsReviewed": false, "locationPrivate": false, "subId": "S196537038"}, {"speciesCode": "conwar", "comName": "Connecticut Warbler", "sciName": "Oporornis agilis", "locId": "L10639759", "locName": "Housatonic River--Division St.", "obsDt": "2024-09-25 12:41", "howMany": 1, "lat": 42.2317567, "lng": -73.3548907, "obsValid": true, "obsReviewed": true, "locationPrivate": false, "subId": "S196478848"}, {"speciesCode": "amewoo", "comName": "American Woodcock", "sciName": "Scolopax minor", "locId": "L207427", "locName": "Canoe Meadows Wildlife Sanctuary (Mass Audubon)", "obsDt": "2024-09-25 11:36", "howMany": 1, "lat": 42.4303016, "lng": -73.2367135, "obsValid": true, "obsReviewed": false, "locationPrivate": false, "subId": "S196445636"}, {"speciesCode": "swathr", "comName": "Swainson's Thrush", "sciName": "Catharus ustulatus", "locId": "L207427", "locName": "Canoe Meadows Wildlife Sanctuary (Mass Audubon)", "obsDt": "2024-09-25 11:36", "howMany": 1, "lat": 42.4303016, "lng": -73.2367135, "obsValid": true, "obsReviewed": false, "locationPrivate": false, "subId": "S196445636"}, {"speciesCode": "norpin", "comName": "Northern Pintail", "sciName": "Anas acuta", "locId": "L279496", "locName": "Onota Lake--Dan Casey Memorial Dr.", "obsDt": "2024-09-24 17:06", "howMany": 1, "lat": 42.4845242, "lng": -73.2784317, "obsValid": true, "obsReviewed": false, "locationPrivate": false, "subId": "S196376611"}, {"speciesCode": "norhar2", "comName": "Northern Harrier", "sciName": "Circus hudsonius", "locId": "L789332", "locName": "Baldwin Hill, Egremont", "obsDt": "2024-09-24 13:45", "howMany": 1, "lat": 42.1833771, "lng": -73.4376812, "obsValid": true, "obsReviewed": false, "locationPrivate": false, "subId": "S196369446"}, {"speciesCode": "perfal", "comName": "Peregrine Falcon", "sciName": "Falco peregrinus", "locId": "L207427", "locName": "Canoe Meadows Wildlife Sanctuary (Mass Audubon)", "obsDt": "2024-09-24 09:30", "howMany": 1, "lat": 42.4303016, "lng": -73.2367135, "obsValid": true, "obsReviewed": false, "locationPrivate": false, "subId": "S196398586"}, {"speciesCode": "eawpew", "comName": "Eastern Wood-Pewee", "sciName": "Contopus virens", "locId": "L207427", "locName": "Canoe Meadows Wildlife Sanctuary (Mass Audubon)", "obsDt": "2024-09-24 09:30", "howMany": 1, "lat": 42.4303016, "lng": -73.2367135, "obsValid": true, "obsReviewed": false, "locationPrivate": false, "subId": "S196398586"},